School Giga ID,School Name,Longitude,Latitude,Education Level,Country ISO3 Code,Country Name,School Data Source
bf651987-27d2-3fe1-aae9-1ff3aef2324f,'64' SECONDARY SCHOOL,35.25920104980469,0.518220007419586,Secondary,KEN,Kenya,
c2f348ab-e259-3e10-85b5-ea526f52f813,ABAKAILE,40.10120391845703,0.074500620365143,Primary,KEN,Kenya,
f4947b96-23bc-3b6e-adfa-c16451ecc281,ABAKORE MIXED DAY SECONDARY SCHOOL,39.703399658203125,0.626990020275116,Secondary,KEN,Kenya,
d1a7616b-efae-3a47-9594-ba071f07f4c9,ABC KAMBUSU SECONDARY SCHOOL,37.41426467895508,-1.159904360771179,Secondary,KEN,Kenya,
f881437e-2d92-3bad-915b-93cecc7a5b24,ABC KANZAUWU MIXED DAY SECONDARY SCHOOL,38.12459945678711,-1.551609992980957,Secondary,KEN,Kenya,
18a19f75-1b97-3bc6-a73a-e5bfbe282f38,ABC KATHIANI ACADEMY,37.32342529296875,-1.414237976074219,Primary,KEN,Kenya,
6f682b5a-f31d-3a85-913f-226309b7d68f,ABC KIMWELI SECONDARY SCHOOL,38.26789855957031,-2.132560014724731,Secondary,KEN,Kenya,
8e691de4-1288-3ec1-835a-1283adca7971,ABC MUUNGUU SECONDARY SCHOOL,38.994239807128906,0.779579997062683,Secondary,KEN,Kenya,
d38f8cc4-0ebd-349e-95b4-c109ca5aa941,ABC NGAAMBA SECONDARY SCHOOL,37.23617935180664,1.908120036125183,Secondary,KEN,Kenya,
6b062085-114b-3dd7-92a7-4756e7797cf0,ABERDARE F K ACADEMY,36.57823181152344,0.07705020159483,Primary,KEN,Kenya,
1c657eb8-3612-3ec5-96b4-b58632615098,ABERDARE GIRLS' SECONDARY SCHOOL,36.65987014770508,-0.725421011447906,Secondary,KEN,Kenya,
4f9febb7-f637-3149-9f53-773576622a47,ABERDARE RANGES SECONDARY SCHOOL,36.5,-0.540000021457672,Secondary,KEN,Kenya,
76c176bb-c766-31da-8460-e51660319735,ABIGAIL SCHOOL,34.79399871826172,0.607999980449677,Primary,KEN,Kenya,
5bacb69d-c98c-356b-860d-acf7d4b9837d,ABORE PRIMARY SCHOOL,39.974849700927734,0.792952001094818,Primary,KEN,Kenya,
cebe2725-5991-3dcc-93b2-5b7de391b3bd,ABOSI SECONDARY SCHOOL,35.10139846801758,-1.015400052070618,Secondary,KEN,Kenya,
f3ddaec3-27fe-3368-8406-77ff915d2c23,ABRAR HIGH SCHOOL,35.35060119628906,0.481880009174347,Secondary,KEN,Kenya,
cdb6e9ac-f1bd-32e4-baae-bc58f595626a,ABRASSA ACADEMY,38.54631423950195,3.602451086044312,Primary,KEN,Kenya,
0d3ddba2-6ab1-335d-a756-d30708a8f931,ACACIA CREST SENIOR SCHOOL,36.91624069213867,-1.527490019798279,Secondary,KEN,Kenya,
9e8ae1a4-7d6c-3b8e-84a1-1cdce2180af8,A C BUTONGE HIGH SCHOOL,34.47679901123047,0.714890003204346,Secondary,KEN,Kenya,
74d73623-4143-3626-a179-32c083d7f7e3,ACHEGO GIRLS SECONDARY  SCHOOL,35.191001892089844,-0.076700001955032,Secondary,KEN,Kenya,
ba4cef14-b09d-3d54-a8e0-432ec1920cf6,ACHEGO MIXED SECONDARY SCHOOL,34.588199615478516,-0.515500009059906,Secondary,KEN,Kenya,
0804f66a-4106-3ae7-b8d6-2adb5db8e6a1,ACHIEVERS STAR ACADEMY CHEBOLE,35.21500015258789,0.746890008449554,Primary,KEN,Kenya,
5544234a-5ed6-39dd-a9ca-5fa678d37f0a,ACHIYA ECHAKARA HIGH SCHOOL  KAMURIAI,34.29753875732422,0.663330018520355,Secondary,KEN,Kenya,
f0b7d436-4694-33c1-a632-18ee3e41ae47,ACK ATUREI SECONDARY SCHOOL,35.19341278076172,0.48168158531189,Secondary,KEN,Kenya,
6538bfd3-8e31-3d56-b818-7b63310cf1e5,ACK BISHOP KALU MIXED DAY SECONDARY SCHOOL,40.027809143066406,-3.228410005569458,Secondary,KEN,Kenya,
e4f62dd3-e144-3eb8-a1ce-3dc5e6f9b91f,ACK CANON MWERI MEMORIAL SECONDARY SCHOOL,40.116817474365234,-3.221879005432129,Secondary,KEN,Kenya,
5dcbf262-8f99-3a74-a0c2-85a58a321097,A.C.K CHANGARA SECONDARY SCHOOL,34.418270111083984,0.725910007953644,Secondary,KEN,Kenya,
e3d0f21d-92b9-387b-a810-5426260c8204,ACK CHELEKEI SECONDARY SCHOOL,34.733299255371094,0.734200000762939,Secondary,KEN,Kenya,
50b4a83a-0dbe-3a9e-9ebe-99c46737c2b5,ACK CHEMASARI,34.33320236206055,0.680128872394562,Unknown,KEN,Kenya,
8ce6663c-05f7-36b6-b1c3-2e26b9a09bfe,ACK ENA,37.552101135253906,-0.478199988603592,Primary,KEN,Kenya,
c298d054-e6ec-34da-9dae-4c3dcada7fc9,A .C .K  ESHIHAKA SECONDARY SCHOOL,34.46589660644531,0.231928005814552,Secondary,KEN,Kenya,
d935c304-3660-3fa5-942d-c0422e252784,ACK GIKUNI SECONDARY SCHOOL,36.70063400268555,-1.200078964233398,Secondary,KEN,Kenya,
2ce0e2ba-4b9f-3607-a6a8-d4082eb438a5,A.C.K. GOOD SAMARITAN,36.714900970458984,-1.322900056838989,Primary,KEN,Kenya,
901016aa-abe0-3903-ac9d-aab4b461dc7a,ACK KAANWA SECONDARY SCHOOL,37.72119903564453,0.32710000872612,Secondary,KEN,Kenya,
aff6d190-52d5-332d-876a-0369b431a546,ACK KAHUMBU SECONDARY SCHOOL,37.05619812011719,0.843200027942657,Secondary,KEN,Kenya,
dd0606b4-3ccc-3b71-9818-0e96513c24f2,ACK KAIBEIYO PRIMARY SCHOOL,35.222320556640625,0.262739986181259,Primary,KEN,Kenya,
139e2a8f-7f77-35d0-8900-aeb3542470b5,ACK KAMBARU DAY MIXED SECONDARY SCHOOL,37.612159729003906,0.56361997127533,Secondary,KEN,Kenya,
ab4cb1e0-f6ab-3220-9558-f683708b0abc,ACK KAMUTU SECONDARY SCHOOL,37.83549880981445,-0.470809996128082,Secondary,KEN,Kenya,
89f6939b-abf6-36de-96b1-1ce392f324fa,ACK KAPOROWO MIXED DAY SECONDARY SCHOOL,35.34939956665039,1.292639970779419,Secondary,KEN,Kenya,
12f56495-946f-3bab-8c45-ef36a056a425,ACK KARURA SECONDARY SCHOOL,36.72700119018555,1.191269993782043,Secondary,KEN,Kenya,
9097f265-7236-3fbd-bd27-fad77396dc90,A.C.K KATHANJURI MIXED SECONDARY SCHOOL,37.611541748046875,-0.423610001802444,Secondary,KEN,Kenya,
82739cdf-8c98-3daa-8095-db7b12b9486a,A C K KIANGOCI,37.46754455566406,-0.46740248799324,Primary,KEN,Kenya,
6e5883a3-01bb-3d15-8cda-0cae84e1ab2c,ACK KIANJOKOMA,37.5024528503418,-0.40122190117836,Primary,KEN,Kenya,
6a715cae-059c-305d-af2d-abd4853bd9a2,ACK KITEEI SECONDARY SCHOOL,37.80082321166992,-2.088900089263916,Secondary,KEN,Kenya,
b10ad490-88e1-303e-982a-ce73a64612eb,ACK KIU RIVER SECONDARY SCHOOL,36.8686408996582,-1.169371962547302,Secondary,KEN,Kenya,
b4f4e0a2-09aa-31e7-a4dc-671e3973a49d,A C K MALIKINI SECONDARY SCHOOL,37.42596435546875,-0.838580012321472,Secondary,KEN,Kenya,
e0821243-38d3-3c47-bb3d-78d99b33b24f,ACK MARALAL SCHOOL,36.69401168823242,1.103180050849915,Primary,KEN,Kenya,
d7e68ab4-cef9-3083-a45a-16be7073cfba,A.C.K MILIMANI GIRLS,34.43920135498047,0.230021998286247,Secondary,KEN,Kenya,
03f6a727-bfc5-32f0-9b07-cc82fac80672,A.C.K. MUSOMA MIXED SECONDARY SCHOOL,33.99800109863281,0.085199996829033,Secondary,KEN,Kenya,
4e982f94-58e2-36c4-adae-dae37b30ada9,ACK NDUMARI DAY SECONDARY SCHOOL,37.64929962158203,-0.507969975471497,Secondary,KEN,Kenya,
75a13c58-2a84-3f83-84d5-36ddefc12660,A.C.K NYAGARI MIXED DAY SECONDARY SCHOOL,37.620540618896484,-0.44734999537468,Secondary,KEN,Kenya,
d835e67a-29df-388c-923f-bea813a11c24,A C K NYATHUNA SECONDARY SCHOOL,36.6833381652832,-1.186400055885315,Secondary,KEN,Kenya,
77f4291f-3670-3cac-951f-fbdda58aa11d,ACK RAE GIRLS HIGH SCHOOL,34.954200744628906,-0.241410002112389,Secondary,KEN,Kenya,
830fa895-c2e2-3364-896c-ae407b10eebc,ACK RIANJERU MIXED SECONDARY SCHOOL,37.499000549316406,-0.616800010204315,Secondary,KEN,Kenya,
18098378-de19-3a06-a41f-83a4e2df9c78,ACK ST ANDREWS TENDWO ACADEMY,34.995540618896484,0.042410001158714,Primary,KEN,Kenya,
be396ff2-0e5e-3e7a-95ee-c8768356bb7b,ACK ST. BARNABAS GACICO,37.647098541259766,-0.466829985380173,Primary,KEN,Kenya,
4988a741-dde4-370f-8a33-fc682f3e1234,A.C.K. ST. BARNABAS KIPKENYO SECONDARY SCHOOL,35.212379455566406,0.527740001678467,Secondary,KEN,Kenya,
0cd97658-d523-3c59-a9c2-2a1c2c127c41,A.C.K ST.BARTHOLOMEW SECONDARY SCHOOL,38.53300094604492,-3.389650106430054,Secondary,KEN,Kenya,
854bb5b4-b4b2-33ac-b35e-44d12a5f01f1,A.C.K ST. JAMES MATULANI SECONDARY SCHOOL,37.814300537109375,-1.564900040626526,Secondary,KEN,Kenya,
4363f483-d656-35cc-bdbf-fd6c4967fa76,ACK ST. JOHN SIGOWET SECONDARY SCHOOL,35.217498779296875,0.588800013065338,Secondary,KEN,Kenya,
7cd89529-788e-3990-971d-9071053db88b,ACK ST. JOHN'S KHWISERO SECONDARY SCHOOL,34.596981048583984,0.167449995875359,Secondary,KEN,Kenya,
4da6c0b7-c668-3542-9588-8212d1a19e38,ACK ST. JOHNS KISEKINI SECONDARY SCHOOL,37.380001068115234,-1.803699970245361,Secondary,KEN,Kenya,
2f887ce0-4f91-367a-96cd-80bc1b3a47f6,A.C.K ST. JOSEPH'S MAAUELI SECONDARY SCHOOL,37.451698303222656,0.495999991893768,Secondary,KEN,Kenya,
21b2fb61-6986-3185-845a-1a26f142f307,A.C.K ST LUKE PRIMARY  SCHOOL- BIRIBIRIET,35.17900085449219,0.389800012111664,Primary,KEN,Kenya,
7790a0f7-3833-37d6-a7e0-a309558583d8,A.C.K  ST. LUKE'S KAVIA SECONDARY SCHOOL,38.0817985534668,-1.437100052833557,Secondary,KEN,Kenya,
01a54fd0-8e64-35f1-9ac1-5bec39e594a6,A.C.K ST MARY'S SCHOOL THINDIGUA,36.848079681396484,-1.209342002868652,Primary,KEN,Kenya,
4a732f3c-6d15-31f4-806a-b3e329867044,ACK ST. MARY'S SECONDARY SCHOOL-MUKANGU,37.545875549316406,0.736707985401154,Secondary,KEN,Kenya,
f5a6c86a-415d-3c1c-bf1c-4bc9bb02c820,A.C.K  ST. MARY'S SHITOTO GIRLS' SECONDARY SCHOOL,34.576480865478516,0.315429985523224,Secondary,KEN,Kenya,
5090d37d-a299-3a84-8a9a-7233c3f661c3,ACK ST.PAUL'S MAKANDUNE SECONDARY SCHOOL,37.819400787353516,0.08110000193119,Secondary,KEN,Kenya,
cb7efcb2-626e-3c69-ae70-c400de13b596,A.C.K ST. PETER'S MUTIGE ACADEMY,37.31800079345703,-0.46000000834465,Primary,KEN,Kenya,
c031db03-cb31-30d5-a061-fa9f3737bc0c,ACK ST.PHILIP KIPSOEN SECONDARY SCHOOL,35.76900100708008,1.115000009536743,Secondary,KEN,Kenya,
e8c7bf8d-4ac6-3e5b-ab6d-0f8e899148d9,ACK ST. STEPHENS KIMA SECONDARY SCHOOL,37.32733154296875,-1.833930015563965,Secondary,KEN,Kenya,
9871b933-3dd8-3b7d-8f48-8b8fa292234a,ACK ST. STEPHENS NAMANDA SECONDARY SCHOOL,34.85430145263672,0.819029986858368,Secondary,KEN,Kenya,
ec30e10c-3d4e-3030-b13a-eb326450e13e,ACK TEGAT,35.096031188964844,0.201220005750656,Primary,KEN,Kenya,
760fb658-151e-3fb9-a9de-a6e52a84c024,ACK THE GOOD SHEPHERD KIBABII SECONDARY SCHOOL,34.625999450683594,0.548900008201599,Secondary,KEN,Kenya,
fcf3c3e0-fc17-3392-b36c-00e1894053ae,ACK THIKA MEMORIAL CHURCH SCHOOL,37.06388854980469,-1.023440003395081,Primary,KEN,Kenya,
6f614ae0-4acc-37ce-b762-b11d336669e5,ACK UKIA MIXED SECONDARY SCHOOL,37.500301361083984,-1.763858556747437,Secondary,KEN,Kenya,
add031f2-9d11-3938-b95e-3553b33c7fc5,ACK WOTE TOWNSHIP,37.61569595336914,-1.790523052215576,Primary,KEN,Kenya,
25d47bf2-0692-3aca-aa51-1ef1022d795c,ACK WOTE TOWNSHIP,37.62382125854492,-1.780470013618469,Primary,KEN,Kenya,
d8ff4d2a-5b99-3390-96a2-fcde14290110,ACTION PRAISE SECONDARY SCHOOL,36.29650115966797,0.07354000210762,Secondary,KEN,Kenya,
3b6b2167-32c8-3317-aa94-01875725ff90,ADAN AWALE PRIMARY SCHOOL,39.379268646240234,2.114809036254883,Primary,KEN,Kenya,
3f239c1b-3f48-39ad-9311-e8a0f546f532,ADEMASAJIDA MIXED DAY SECONDARY SCHOOL,39.48759841918945,1.034880042076111,Secondary,KEN,Kenya,
f69cb2d3-df4a-3b12-8847-d72f38fc14c6,ADONGO,34.43299865722656,-0.579999983310699,Primary,KEN,Kenya,
df7f0a28-39ff-3372-85df-c146d99ff380,ADU BLOSSOM EDUCATION CENTRE,34.970001220703125,-0.270000010728836,Primary,KEN,Kenya,
8e86f75f-7260-3572-8eb8-2f85aa62002c,ADUONG MONGE SECONDARY SCHOOL,34.4390983581543,-0.110299997031689,Secondary,KEN,Kenya,
3579809f-adc4-32b8-8f5b-ece9d9b69659,ADU SECONDARY SCHOOL,39.967498779296875,-2.842469930648804,Secondary,KEN,Kenya,
6ae26da1-7cd2-350a-bff3-cefb1f85fa1f,ADVENT HILL SCHOOL,36.68349838256836,-1.39437997341156,Primary,KEN,Kenya,
7aeae75f-32b3-387e-970d-3318f9b9327b,AFARSHANLE,40.12668991088867,1.758322596549988,Primary,KEN,Kenya,
ffdb92a3-7916-3b79-be2c-9f707edc7269,AFESOMO ACADEMY,35.13100051879883,1.108000040054321,Primary,KEN,Kenya,
9e51e031-f408-3914-93f4-d27e121673ab,AGAI,35.007999420166016,-0.393999993801117,Primary,KEN,Kenya,
d57ce897-78cb-3cd4-a5b0-1b8bb13902e3,AGAI MIXED SECONDARY SCHOOL,35.00699996948242,-0.392500013113022,Secondary,KEN,Kenya,
3095bd49-5619-32c1-bd6d-61d91cf314e1,AGA KHAN,36.82500076293945,-1.259999990463257,Primary,KEN,Kenya,
e3528d02-24a9-30f8-bab9-656d7d3d3783,AGAPE DAY SPRING,36.97600173950195,-1.15310001373291,Primary,KEN,Kenya,
ebebe523-18c0-33ef-b515-c1ca710c2612,AGAPE JUNIOR ACADEMY,37.647098541259766,-0.466829985380173,Primary,KEN,Kenya,
d4b6745e-5b63-3e26-8538-a64d62b3d9a5,AGC LILLOCH SECONDARY SCHOOL,35.465721130371094,-0.200025096535683,Secondary,KEN,Kenya,
216302a8-787c-3262-ab34-8211dcaea79b,A G C SOSIOT ACADEMY,35.1799430847168,-0.357203602790833,Primary,KEN,Kenya,
4ecab133-7e8a-36df-9f45-888271dd2560,AGENG'A SECONDARY SCHOOL,40.93891143798828,1.955049991607666,Secondary,KEN,Kenya,
84c81d6c-e266-308d-9b3f-1f1f51d5e229,AGOK MIXED SECONDARY SCHOOL,34.31999969482422,-0.456999987363815,Secondary,KEN,Kenya,
8b68882d-9ef2-3448-8653-6d7fe7b120ab,AGORO  OYOMBE SECONDARY SCHOOL,34.35900115966797,0.052799999713898,Secondary,KEN,Kenya,
f18ddce2-6335-3cd9-b30f-82813e760a5c,AGULU,34.62120056152344,-0.014589999802411,Primary,KEN,Kenya,
edc619fd-bb14-39f4-8078-1ccaa458686c,AHADI PRESBYTERIAN SCHOOL,37.00630187988281,-1.127099990844727,Primary,KEN,Kenya,
d93dc355-3b2b-3c6a-b131-572dcbe18a99,AHMED LIBAN SECONDARY SCHOOL,40.06269836425781,-1.780799984931946,Secondary,KEN,Kenya,
73792045-84b7-3a8a-8d4e-3e03dd592113,AIC BIRIBIRIET SECONDARY SCHOOL,35.18090057373047,1.028800010681152,Secondary,KEN,Kenya,
3210dcc6-a6fc-33f2-9002-60b2a1f9d1e3,AIC BISSET SECONDARY SCHOOL,35.87379837036133,-1.092339992523193,Secondary,KEN,Kenya,
dbd0d330-6a3e-3046-b9c0-08bcf2ca47f8,AIC CHEBISAAS GIRLS SECONDARY SCHOOL,34.97800064086914,0.062899999320507,Secondary,KEN,Kenya,
c8b68228-4e35-3c4e-9c07-afc9ee19442f,AIC CHEMORIL WON PRIMARY SCHOOL,36.073848724365234,0.909910023212433,Primary,KEN,Kenya,
da9b23ac-cf5b-3ec4-90ef-7ee960592bad,AIC CHEMUNGEN SECONDARY SCHOOL,35.35354995727539,0.536270022392273,Secondary,KEN,Kenya,
5c607f57-6cd8-3c82-bcc9-ebb8b58cca5b,A.I.C CHEPKEBUGE SECONDARY SCHOOL,34.92599868774414,0.050790000706911,Secondary,KEN,Kenya,
40b3e42f-0639-36ca-ac5c-297f0012d450,AIC CHEPTWOLIO SECONDARY SCHOOL,35.147499084472656,0.330229997634888,Secondary,KEN,Kenya,
47d0cfc6-3b71-37aa-ae57-ccef2bf78179,A.I.C CHESOMBUR MIXED DAY & BOARDING SECONDARY SCH,35.630001068115234,1.352872014045715,Secondary,KEN,Kenya,
f6b349d7-c332-34e2-a5cc-39374bf00143,AIC GIRLS SECONDARY SCHOOL KESSUP,35.481998443603516,0.567300021648407,Secondary,KEN,Kenya,
3ea9d29e-153d-30a9-9350-9a56fa5b2fc9,A.I.C ISAAC KOSGEI SECONDARY SCHOOL,36.36040115356445,0.373699992895126,Secondary,KEN,Kenya,
3ae9bff0-3c50-3f79-970d-27d9af0046d9,AIC ITHAMBWA-NGAO MIXED SECONDARY SCHOOL,38.031517028808594,-1.077546954154968,Secondary,KEN,Kenya,
f133ec2e-365b-3dc5-a08e-be60d5629682,AIC ITIGO PRIMARY SCHOOL,35.305999755859375,0.591000020503998,Primary,KEN,Kenya,
2463c3b6-84f8-3e44-b41d-6ca172070f13,A. I. C. ITIGO SECONDARY SCHOOL,35.30839920043945,0.594979226589203,Secondary,KEN,Kenya,
92f8608c-2113-30d8-9829-9192b19a669b,AIC IUANI SECONDARY SCHOOL,37.62112045288086,-1.789649963378906,Secondary,KEN,Kenya,
d09a52eb-8067-327f-bd40-0a100c2a1618,A.I.C. KAIGAT SECONDARY SCHOOL,35.14899826049805,0.489199995994568,Secondary,KEN,Kenya,
ccbd375b-f22f-38d2-92bf-28f11e754e9f,AIC KAMALE SECONDARY SCHOOL,38.08881759643555,-1.453184008598328,Secondary,KEN,Kenya,
8db992c2-c036-33a9-bf88-782a7f678e62,AIC KAMORET SECONDARY SCHOOL,35.16109848022461,0.303990006446838,Secondary,KEN,Kenya,
40d7c295-466e-3008-8ae4-3266c006f810,AIC KAPKEI SECONDARY SCHOOL,35.439762115478516,0.542177021503448,Secondary,KEN,Kenya,
0c393214-bf9f-3a17-82ee-ed0aabf92ded,AIC KAPKELELWA SECONDARY SCHOOL,35.71696090698242,0.369289994239807,Secondary,KEN,Kenya,
4f058c4b-2a69-3d0c-adc9-fa2bd25b361d,A.I.C KAPKOI SISAL SECONDARY SCHOOL,35.113861083984375,0.88594001531601,Secondary,KEN,Kenya,
3933c636-2ec8-3355-adba-7f93f949b755,AIC KAPTUMO SECONDARY SCHOOL,35.3992805480957,0.345569998025894,Secondary,KEN,Kenya,
0c8ec164-4c01-334e-96ae-b4ac03c12080,AIC KAVOLOI SECONDARY SCHOOL,37.93000030517578,-1.100000023841858,Secondary,KEN,Kenya,
e3c430e9-e2de-3325-a70d-507a829b3825,A.I.C KECHIRE SECONDARY SCHOOL,35.0076904296875,0.179890006780624,Secondary,KEN,Kenya,
bd856671-32aa-3c26-9205-da49717db2d3,AIC KIBORGOK GIRLS SECONDARY SCHOOL,34.972900390625,0.198789998888969,Secondary,KEN,Kenya,
5c88353e-b1cd-3cf2-b746-8d4c6e5225b0,A I C KIKAMBUANI SECONDARY SCHOOL,37.382999420166016,-1.291339993476868,Secondary,KEN,Kenya,
18ca8319-4d28-3430-8b60-b2b4888eba2d,A.I.C KILUKA MIXED DAY SECONDARY,35.43190002441406,0.406760007143021,Secondary,KEN,Kenya,
3753d017-784c-3821-b122-dd30b012ca5a,AIC KIMONG' SECONDARY SCHOOL,35.023399353027344,0.448520004749298,Secondary,KEN,Kenya,
22066b8d-6cf8-3c34-8adc-4fb19ac8fb03,AIC KIPKEIKEI BOYS HIGH SCHOOL,35.212608337402344,1.011469960212708,Secondary,KEN,Kenya,
d7d47417-6dfc-3f53-8669-aad497dc480d,A.I.C KIPTUMET SECONDARY SCHOOL,34.96110153198242,1.134500026702881,Secondary,KEN,Kenya,
b309d6b1-5abe-3be3-ae7e-86fdb85c0ce6,A.I.C KIPYAOR SECONDARY SCHOOL,35.383880615234375,-0.014165000058711,Secondary,KEN,Kenya,
f71ffc9a-8a52-33c9-b03c-b683803c9d60,AIC KITHIMANI,37.446781158447266,-1.188250064849854,Primary,KEN,Kenya,
fd3dd7cb-0a95-35da-a6f9-645260ecf30e,AIC KITUNDUNI SECONDARY SCHOOL,38.00400161743164,-1.286399960517883,Secondary,KEN,Kenya,
86c7e2ef-6ea9-3afa-bba5-5873649412c4,AIC KOBOS GIRLS HIGH SCHOOL,34.94599914550781,1.148699998855591,Secondary,KEN,Kenya,
d405752c-b4f9-3bf9-9826-b8f599088820,A I C KOSIRAI GIRLS SECONDARY SCHOOL,35.14105987548828,0.279650002717972,Secondary,KEN,Kenya,
5d37a9c9-f179-3671-b791-cc9eb9bc91ce,AIC KOSIRAI SECONDARY SCHOOL,35.23699951171875,0.322086989879608,Secondary,KEN,Kenya,
6b9b1e9a-8492-3ab0-af93-b7432b159f54,A.I.C KOSYIN SECONDARY SCHOOL,35.23066329956055,0.828096270561218,Secondary,KEN,Kenya,
f23e020b-2d0b-31c3-9910-233e24ac41ce,AIC LABORET,35.04787063598633,0.499430000782013,Primary,KEN,Kenya,
06abaf05-a170-3a7b-842f-3c9ca3f17102,A I C LEMOOK SECONDARY SCHOOL,35.221099853515625,0.470429986715317,Secondary,KEN,Kenya,
d94a7e16-a456-3dd6-a3da-e31976753e63,A.I.C LESERU BOYS SCHOOL,35.206809997558594,0.593789994716644,Secondary,KEN,Kenya,
058b90d0-272c-35b1-ba95-e9f174f019f3,A.I.C LESERU GIRLS SCHOOL,35.15879821777344,0.567900002002716,Secondary,KEN,Kenya,
a2dbb957-72fc-3ca4-b503-1d98853e03e6,A.I.C LESSOS SECONDARY SCHOOL,34.99599838256836,1.042600035667419,Secondary,KEN,Kenya,
f9ca6546-05dd-3048-a795-a31ca542e64b,A.I.C LOLKERINGET SECONDARY SCHOOL,35.0620002746582,0.921000003814697,Secondary,KEN,Kenya,
b7f964fa-7745-32ce-8801-cdc463fe0d49,A.I.C  MATITHINI MIXED SECONDARY SCHOOL,37.39818572998047,-1.355149030685425,Secondary,KEN,Kenya,
0bb70dd3-a0be-390a-b94e-afd0c70809f2,AIC MAVINDINI BOYS SECONDARY SCHOOL,37.75477600097656,-0.830775022506714,Secondary,KEN,Kenya,
7e86bbf7-4d8c-397d-ba64-ea9916018f1f,A.I.C MBAU SECONDARY SCHOOL,38.070316314697266,-1.054116010665894,Secondary,KEN,Kenya,
925ea260-a37a-3416-b2ff-f3bcb12e969c,AIC MBEMBANI CENTRAL SECONDARY SCHOOL,37.26259994506836,1.617499947547913,Secondary,KEN,Kenya,
70675715-53d3-373d-8e13-41c17e84027d,A I C MOI ACADEMY ESAGERI,35.8240966796875,0.028598999604583,Secondary,KEN,Kenya,
96364660-d67b-3194-bb31-4ea9543de7f5,A.I.C MOI BOYS HIGH SCHOOL - KAPLAMAI,35.12087631225586,0.983112990856171,Secondary,KEN,Kenya,
b6e7210e-266f-3821-b8e8-e03cb5ffcd3f,A I C MOI'S BRIDGE,35.1290283203125,0.876370012760162,Primary,KEN,Kenya,
85fa85dd-8954-389f-9f58-01d61fa51b6d,AIC MOROP GIRLS' SECONDARY SCHOOL,35.9421501159668,-0.116300001740456,Secondary,KEN,Kenya,
07fa8aa2-a548-3768-85bd-fe618a759ffe,AIC MOSORIOT SECONDARY SCHOOL,35.167598724365234,0.302729994058609,Secondary,KEN,Kenya,
3909a998-d74e-3bea-aa71-5eb67546042c,AIC MUISUNI MIXED SECONDARY SCHOOL,37.36750030517578,-1.310799956321716,Secondary,KEN,Kenya,
879ad8f1-4e15-36a7-8690-376a0dedad06,A.I.C MUMETET SECONDARY SCHOOL,35.30208969116211,0.732800006866455,Secondary,KEN,Kenya,
aa6bf89c-9d81-381e-8173-2769e9aabc94,A.I.C MUNYUNI MIXED DAY SECONDARY SCHOOL,38.233360290527344,1.059620022773743,Secondary,KEN,Kenya,
3652a072-498b-3ce9-aaa6-15add801331b,AIC MUTWOT SECONDARY SCHOOL,35.167598724365234,0.302729994058609,Secondary,KEN,Kenya,
100ec6d3-5b0a-3405-b3de-f74ee25bd836,A.I.C MWASUMA SECONDARY SCHOOL,38.24617004394531,-0.77047997713089,Secondary,KEN,Kenya,
a1592880-5241-3460-b45a-41ef0b99c4f1,A I C MWATATI SECONDARY SCHOOL,37.33905792236328,-1.262550711631775,Secondary,KEN,Kenya,
d0a30012-09b3-3a24-9d5a-3e023ef759c8,A.I.C NAISAMBU GIRLS SECONDARY SCHOOL,35.05536651611328,1.01855194568634,Secondary,KEN,Kenya,
d92b45f0-36e2-3281-8b00-3fcb944a7263,A.I.C. NAKURU ACADEMY,36.05458068847656,0.291629999876022,Primary,KEN,Kenya,
fbd3a43f-7c2e-3d9c-98c8-a42ce8d1ca8f,AIC NDABARNACH SECONDARY SCHOOL,35.144779205322266,0.85840517282486,Secondary,KEN,Kenya,
62142bfb-d7a9-3b9f-972d-2195d4d2d851,A.I.C NGELANI MIXED SECONDARY SCHOOL,37.25148010253906,-1.425613045692444,Secondary,KEN,Kenya,
1ca925db-a740-38d2-9846-d86d5fa0f5cc,A.I.C NGONG HILLS SECONDARY SCHOOL,36.648048400878906,-1.369493007659912,Secondary,KEN,Kenya,
8997fe8d-04b1-35c8-b96f-01c7caeab775,A.I.C NTHINGINI SECONDARY SCHOOL,37.3762092590332,-0.801460027694702,Secondary,KEN,Kenya,
ef3cb9b5-d36e-3854-b5bd-a00238963a3d,A I C PHILEMON CHELAGAT GIRLS,35.71009826660156,0.448635011911392,Secondary,KEN,Kenya,
6d995005-dcff-3963-961b-92f01f9a3a18,AIC SARAMEE,35.369422912597656,1.164344549179077,Primary,KEN,Kenya,
f568b4c2-8dce-350f-9675-492c4ed369d8,A.I.C SARAMEK SECONDARY SCHOOL,35.2599983215332,0.828000009059906,Secondary,KEN,Kenya,
9d4bea18-b28b-31c6-a577-355fd1c0cd23,A. I. C. SEIYOT SECONDARY SCHOOL,35.164398193359375,0.584399998188019,Secondary,KEN,Kenya,
996c3a86-f35b-33c0-b44d-c94e6222b374,AIC SULTAN HAMUD SECONDARY SCHOOL,37.38309860229492,-2.015310049057007,Secondary,KEN,Kenya,
95c90c5f-a4d9-36da-96e9-598239518b15,AIC SUNRISE PRIMARY SCHOOL,35.63779830932617,0.970380008220673,Primary,KEN,Kenya,
d5dc401d-bf19-37fb-93e4-c4adc3e6bc70,A.I.C. TELDET SECONDARY SCHOOL,35.18708038330078,0.791665375232697,Secondary,KEN,Kenya,
4fe683c8-a86b-3d6f-83d9-fa7fc40d95a6,A.I.C. TINDIRET ACADEMY,35.36899948120117,0.010300000198185,Primary,KEN,Kenya,
867c94c2-dc17-3769-8608-71b58add1f33,A I C TULWET SECONDARY SCHOOL,35.34589385986328,0.246190503239632,Secondary,KEN,Kenya,
72509fc2-18ff-310c-8713-5630539e6459,A.I.C  YUMBU MIXED DAY SECONDARY SCHOOL,38.24620056152344,-0.9478600025177,Secondary,KEN,Kenya,
326f3aff-b13f-3d73-805a-ed8e14c724c7,AINABKOI SECONDARY SCHOOL,35.43450164794922,0.215359002351761,Secondary,KEN,Kenya,
eb47b2f1-1bed-36fa-ae98-a718e685cfaa,AINABKOI SUB COUNTY PRIVATE CENTRE,35.269779205322266,0.51427698135376,Secondary,KEN,Kenya,
3b1fa7a4-d6bd-3fdb-b425-bfc45f06ddb2,AINAMOI SECONDARY SCHOOL,35.26913833618164,-0.293330013751984,Secondary,KEN,Kenya,
ae48e71f-45cb-3383-ba5a-257613b64f24,AINAPKOI,35.213294982910156,-0.426049053668976,Primary,KEN,Kenya,
841ca6e4-f56b-3bf1-b9c3-ce65c02d857e,AIPCA MATIRAINI,37.101139068603516,-0.526421010494232,Primary,KEN,Kenya,
48e92277-5571-35e0-b752-8b3f0602732f,AIRWAYS HIGH SCHOOL,37.59489059448242,-1.75236701965332,Secondary,KEN,Kenya,
c54d0dc8-cf70-3b0e-a532-9dcec94188c0,AISAIK,35.33498001098633,-0.718379974365234,Primary,KEN,Kenya,
e354c43a-2e13-37cb-9e89-3794ad6733bc,AIYAM SECONDARY SCHOOL,36.4781608581543,0.326790004968643,Secondary,KEN,Kenya,
68523a90-8b22-3b6c-a0d8-fe9fb2eadeb1,AIYEBO HIGH SCHOOL,35.801998138427734,0.620000004768372,Secondary,KEN,Kenya,
d4aa1787-dcc8-308f-947e-0067fb26e718,AJIGO,34.345001220703125,-0.088500000536442,Primary,KEN,Kenya,
0dc0cd82-ab63-3fbe-96e7-7a68fd6a8bc7,AJIR HAPPY KIDS,40.03900146484375,1.734099984169006,Primary,KEN,Kenya,
cbb0d402-08d5-3ef0-91f8-522bd86fc061,AKADO,34.43954086303711,-0.14792999625206,Primary,KEN,Kenya,
ae300b01-b6ee-36f6-a930-5898ce59024c,AKELE,34.45899963378906,-0.362800002098083,Primary,KEN,Kenya,
5b374df0-8d58-33a1-8bff-feb1e1c632d7,AKELIN,35.2161865234375,2.026506900787354,Primary,KEN,Kenya,
150063e6-1164-3fc6-92e1-b64b8e9db632,AKICHELESIT,34.34272766113281,0.692399799823761,Primary,KEN,Kenya,
f2e4275d-d0bc-33d7-b801-e5cda774d962,AKIRANG'ONDU SECONDARY SCHOOL,37.93313980102539,0.320899993181229,Secondary,KEN,Kenya,
5bddb8ff-18f5-3f6e-b474-fed709fc7e22,AKITHII GIRLS SECONDARY SCHOOL,37.762001037597656,0.18520000576973,Secondary,KEN,Kenya,
b10ac8e2-e0ee-3ad8-b1dd-413dbf94f630,AKRAM HIGH SCHOOL,40.157840728759766,1.694470047950745,Secondary,KEN,Kenya,
dc27abad-e88d-37da-a047-9f3d3b566999,AKUUNE MIXED DAY SECONDARY  SCHOOL,37.98566818237305,0.295370012521744,Secondary,KEN,Kenya,
7bfa8ff2-fce3-3140-87b3-159f4e1de7e1,AL ABRAR MIXED SECONDARY SCHOOL,41.844085693359375,3.93228006362915,Secondary,KEN,Kenya,
8987964f-4e6d-348e-91cf-eed3829544f5,ALALE GIRLS' SECONDARY SCHOOL,35.02511978149414,2.267529964447021,Secondary,KEN,Kenya,
cc35f7e6-b35b-3dc1-9ba7-45a3d4c97d62,AL-AMIN ACADEMY,40.371150970458984,0.002689999993891,Primary,KEN,Kenya,
e2bf8af3-5eec-3849-8a9f-d0d801875d3e,AL-AMIN INTEGRATED ACADEMY,40.04899978637695,1.760499954223633,Primary,KEN,Kenya,
637cb34e-de9e-397c-af57-34fda1b103a4,AL-AMIN SECONDARY SCHOOL,40.34410858154297,0.041092999279499,Secondary,KEN,Kenya,
97854c3f-1379-3ed9-a743-0af0312fa48d,ALANGO ARBA,39.983428955078125,-0.096526086330414,Primary,KEN,Kenya,
2176861d-7011-30c9-b0d0-132b4e6c0bd8,AL-ANSAARU NURSERY $ PRIMARY SCHOOL,36.8517951965332,-1.273620963096619,Primary,KEN,Kenya,
138b0b38-83ed-3972-b1f8-df0cd7ba04e1,AL AZAR HIGH SCHOOL,39.669395446777344,-0.464693009853363,Secondary,KEN,Kenya,
d894a299-753e-3db9-9f29-46698c15966c,ALBER SCHOOL -KUTUS,37.332000732421875,0.571600019931793,Primary,KEN,Kenya,
62202bd1-ff7a-38bf-8206-59398abb4bd6,ALBERT EKIRAPA SECONDARY SCHOOL,34.332679748535156,0.630010008811951,Secondary,KEN,Kenya,
52a95de6-8c3d-3cd2-8e0a-8dee7887b039,ALBSTADT HELPING HANDS SECONDARY SCHOOL,39.71929931640625,-3.941709995269775,Secondary,KEN,Kenya,
33cf4073-636b-30ff-8e9d-32a5f9204beb,ALDAI,35.07522964477539,0.083521001040936,Primary,KEN,Kenya,
885f0ece-e5f8-3921-8e05-203b1ee33cf8,ALDAI GIRLS,35.07638168334961,0.080190002918243,Primary,KEN,Kenya,
d1727cd5-97e5-3343-b772-4bce2fe5594f,ALDAI GIRLS SECONDARY SCHOOL,35.07600021362305,0.081200003623962,Secondary,KEN,Kenya,
02794d9a-263b-392f-a308-bc8a1318374a,ALENDU SECONDARY SCHOOL,34.81100082397461,-0.157000005245209,Secondary,KEN,Kenya,
6c4a0415-7f67-3e79-8734-1bd18c71cc82,AL-HAKIM JUNIOR INTEGRATED ACADEMY,39.63859939575195,-0.455938994884491,Primary,KEN,Kenya,
ba146e4a-ccaa-36ff-b17f-5082102f8fb2,AL- HIDAYA INTEGRATED ACADEMY,39.645301818847656,-0.443879991769791,Primary,KEN,Kenya,
c9ebe412-676c-3121-bbf6-4b6a8345ca13,AL-HIDAYA MUSLIM,37.99168014526367,2.339274883270264,Primary,KEN,Kenya,
8dd47299-f762-3456-b916-6d8e51bdd323,AL - HIJRA ACADEMY AND TUTION CENTRE,39.659000396728516,-4.054999828338623,Secondary,KEN,Kenya,
6b1c342f-e902-3ec9-93e1-077b081297fc,AL- HUDA INTEGRATED ACADEMY,41.8630485534668,3.939719915390015,Primary,KEN,Kenya,
ec279c73-ceab-33ea-84b6-b629f1f55e83,ALHUDA MUSLIM,36.79001998901367,-1.841150045394897,Primary,KEN,Kenya,
21122d90-0f59-30a2-8062-51d0842c8c0c,AL-IBRAHIM INTERGRATED HIGH SCHOOL,39.67300033569336,0.045889999717474,Secondary,KEN,Kenya,
26ec938d-4b45-3d30-888b-30c1bd8ef11c,ALIGULA,35.424198150634766,0.665560007095337,Primary,KEN,Kenya,
0d9ab2c1-f82b-31ee-b6c7-4685e53731f3,ALIM HIGH SCHOOL,37.155601501464844,-1.528900027275085,Secondary,KEN,Kenya,
203a5e98-ff75-3e1f-a277-7abad2c4a5ba,ALISON HIGH SCHOOL,36.81700134277344,1.28629994392395,Secondary,KEN,Kenya,
9d8af844-ae40-3d82-b4c6-ec8f4f21d9b8,AL-KADIJA EDU. CENTRE,36.84621810913086,-1.27469003200531,Primary,KEN,Kenya,
e83fbaee-067b-331e-aafe-beabc92b0ff6,ALLIANCE GIRLS' HIGH SCHOOL,36.66299819946289,-1.266000032424927,Secondary,KEN,Kenya,
732efa85-0c54-3b97-98af-5c304a561414,ALLIANCE HIGH SCHOOL,36.66550064086914,-1.260599970817566,Secondary,KEN,Kenya,
fb29e4d0-c5c0-32cf-a23d-18c54197c8e1,ALLIANCE INTEGRATED ACADEMY MIXED,40.05699920654297,1.751320004463196,Primary,KEN,Kenya,
fdfe86d2-6072-35a5-a2d7-8ef166d4fd6d,ALLIANCE MIXED SECONDARY,41.84977722167969,3.931604862213135,Secondary,KEN,Kenya,
6527d4f9-f8bd-3d5f-a5ac-f760cb341074,ALLIANT JUNIOR ACADEMY,36.87099838256836,-1.254199981689453,Primary,KEN,Kenya,
62053ab5-b6fc-370e-8c4a-9f09c8015f7b,ALL SAINTS CHEPKIGEN SECONDARY SCHOOL,35.32992172241211,0.395759999752045,Secondary,KEN,Kenya,
849693b7-5558-3881-ab23-1253e92c97ba,ALL SAINTS KAPKENO GIRLS HIGH SCHOOL,35.27585983276367,-0.035700000822544,Secondary,KEN,Kenya,
ce7dd271-9db6-347a-97ad-815d7609d93a,ALL SAINTS KARAMBARI SECONDARY SCHOOL,37.7154655456543,0.644349992275238,Secondary,KEN,Kenya,
170b8e73-078a-3364-8d13-5f45cb8756d2,ALL SAINTS SENIOR BOYS ACADEMY - EMBU,37.48893737792969,-0.561699986457825,Secondary,KEN,Kenya,
2f2fed35-a38c-3e86-a8c3-e234c7b9b714,AL-MAAWIYA PRIMARY SCHOOL,40.89921951293945,-2.268237113952637,Primary,KEN,Kenya,
99af73d1-e2ef-3a16-8dcd-fc5774aaea90,AL - MIRAJ INTEGRATED HIGH SCHOOL,39.65019989013672,-4.091599941253662,Secondary,KEN,Kenya,
7bb39db0-e2db-3e76-ab37-a3af4a956661,AL - MIRAJ SECONDARY SCHOOL,40.466739654541016,0.039719998836517,Secondary,KEN,Kenya,
fdc97b86-a140-307f-b0c4-7c3e2f6d12da,AL-MUJTAHID INTEGRATED ACADEMY,39.65557861328125,-0.454759985208511,Primary,KEN,Kenya,
9703057e-470f-307d-a8f4-9ccede1bf35a,AL MUMIN HIGH SCHOOL,35.94247055053711,-0.127217993140221,Secondary,KEN,Kenya,
46122949-476e-37ec-9261-7901c3f2c78a,ALPHA THIKA SECONDARY SCHOOL,37.077091217041016,-1.083220243453979,Secondary,KEN,Kenya,
e348399f-7fa8-3620-b29b-786c31acfbb0,AL-RAWDAH HIGH SCHOOL,39.64659881591797,-0.446069985628128,Secondary,KEN,Kenya,
2ed0c777-1f72-34cc-b789-ace39d567bea,ALSUHAIM GIRLS HIGH SCHOOL,36.79003143310547,-2.547019958496094,Secondary,KEN,Kenya,
6fc93051-26e9-3b52-aae8-031e674d6f74,ALUNG'OLI,34.22100067138672,0.412499994039536,Primary,KEN,Kenya,
e320fe45-0cbf-3625-b35b-675101042839,ALUOR GIRLS SECONDARY SCHOOL,34.466888427734375,0.012202000245452,Secondary,KEN,Kenya,
1e66d54e-9150-319a-985a-5310bf944744,ALUOR MIXED SCHOOL,34.542999267578125,-0.678300023078918,Secondary,KEN,Kenya,
5ce52351-7bdd-32cb-84d0-feeb37ee7a62,ALWALA MIXED SECONDARY SCHOOL,34.48568344116211,-0.140762999653816,Secondary,KEN,Kenya,
9cdbbd10-7411-31d0-aa3a-d84231c6bcd5,AMA,39.18333053588867,0.733330011367798,Primary,KEN,Kenya,
0178725a-ba83-330a-aeaf-e23bdf008dd8,AMA,39.83195495605469,-3.59950852394104,Unknown,KEN,Kenya,
e052458e-16d3-3963-960d-e4c773b25fdf,AMAIKO SDA SECONDARY SCHOOL,34.63019561767578,-0.738306999206543,Secondary,KEN,Kenya,
ca83a54e-1a9e-3636-bf15-dbe6c14d3af3,AMALEMBA,34.75389099121094,0.270819991827011,Primary,KEN,Kenya,
183c78d9-d723-3c63-81c9-fe2b741d6002,AMANI,39.867431640625,1.106019973754883,Primary,KEN,Kenya,
778360a6-00a3-3a2e-8f0a-d60e084cf880,AMANI,36.63522720336914,-0.782609701156616,Primary,KEN,Kenya,
40cf4853-1206-3959-8215-662b02ca34fe,AMANI - JOMVU,39.625450134277344,-4.001719951629639,Primary,KEN,Kenya,
3dc0d54c-4bf9-34a5-8c0c-89531ec6926c,AMANI PREPARATORY SCHOOL,34.609413146972656,0.111126996576786,Primary,KEN,Kenya,
a3b24c08-8621-302a-8b8e-7116e8626945,AMATU MIXED DAY SECONDARY SCHOOL,37.75270080566406,0.15726999938488,Secondary,KEN,Kenya,
8f5a4f59-fc59-303a-95b3-0468bf329240,AMAZING GRACE,34.595001220703125,0.017899999395013,Primary,KEN,Kenya,
37374430-3e2e-3848-905e-784d20511d19,AMBASSADOR MWAKWERE HIGH SCHOOL,39.27399826049805,-4.269999980926514,Secondary,KEN,Kenya,
4c780193-53b5-3eac-b370-152bf2ac2c0d,AMBASSADOR PAMELA MBOYA GIRLS SECONDARY SCHOOL,34.341468811035156,-0.532299995422363,Secondary,KEN,Kenya,
81670ecf-54c8-3114-b4c1-ea98eac1562b,AMBIRA HIGH SCHOOL,34.27330780029297,0.179122000932693,Secondary,KEN,Kenya,
cd7ada6a-55a1-3464-992a-8c98318024c2,AMBONI,36.89939880371094,-0.327890008687973,Primary,KEN,Kenya,
5f258c6d-5a1a-3ddd-b5a7-60d9ae74e9be,AMBOSELI,37.36628341674805,-2.744127988815308,Primary,KEN,Kenya,
9e943bc1-1943-32b4-9dac-d69ddad8428d,AMBROSE ADEYA ADONGO SECONDARY SCHOOL,34.28900146484375,0.014600000344217,Secondary,KEN,Kenya,
bdb9e277-39b4-3a53-b711-83cf7555899f,AMETHO DAY SECONDARY SCHOOL,37.86670684814453,0.153861001133919,Secondary,KEN,Kenya,
e868bc3a-5172-32ea-bdef-c57ea0e83eac,AMIABLE ACADEMY,34.73059844970703,0.116999998688698,Primary,KEN,Kenya,
051d0fd3-b3d6-3ec2-ad10-d18900ea037c,AMUGAA ADVENTIST PRIMARY,37.89030838012695,0.14614999294281,Primary,KEN,Kenya,
334184bc-3900-3d40-9444-b9b719e6be30,AMWARI MIXED DAY SECONDARY SCHOOL,37.76380157470703,0.12924000620842,Secondary,KEN,Kenya,
a5a580cc-aae9-3d58-b268-ccb450fc65ce,ANALAT,35.977718353271484,-0.560204207897186,Primary,KEN,Kenya,
e543b57c-706e-3e53-b559-bb29bfdab5c0,ANALAT SECONDARY SCHOOL,36.0,-0.605499982833862,Secondary,KEN,Kenya,
91bb1eaa-0f7e-3ef0-93b8-82d052e13c0c,ANDURO,34.28395080566406,0.038679998368025,Primary,KEN,Kenya,
ba820f7d-01c1-381f-beed-07735c4ee65b,ANESTAR ACADEMY,36.172462463378906,0.237345293164253,Primary,KEN,Kenya,
1e95bb87-ce49-3c84-97d5-61b61d6d6cb3,ANESTAR BOYS HIGH SCHOOL,36.173301696777344,-0.236929997801781,Secondary,KEN,Kenya,
00e0e22a-cde7-368f-a4fa-25a0c8afeefd,ANESTAR BOYS HIGH SCHOOL - LANET,36.078861236572266,-0.315811812877655,Secondary,KEN,Kenya,
997f2509-10f6-3a29-903e-701d7dbebb89,ANESTAR GIRLS HIGH SCHOOL,36.160099029541016,0.243599995970726,Secondary,KEN,Kenya,
f8580932-df73-3447-b7b2-d8ac23e96625,ANESTAR MOUNTAIN ACADEMY,36.201751708984375,-0.26774001121521,Secondary,KEN,Kenya,
4004edff-adf4-3690-b7bb-b5872d3270e9,ANESTAR PRECIOUS GIRLS SECONDARY SCHOOL,36.160099029541016,0.243599995970726,Secondary,KEN,Kenya,
28473d62-5ab7-35fb-a290-b86c43f28ac7,ANESTAR PREMIER HIGH SCHOOL,36.16699981689453,-0.257999986410141,Secondary,KEN,Kenya,
aff2e9bb-6fe0-30ee-9110-8eea17f75e29,ANESTAR SECONDARY SCHOOL,36.17390060424805,0.236599996685982,Secondary,KEN,Kenya,
35492f13-8d4d-3338-a722-fbfe1751c3b7,ANESTAR VICTORY GIRLS SECONDARY SCHOOL,36.17431640625,-0.238387003540993,Secondary,KEN,Kenya,
e0adf617-2f00-3448-8c72-55f1e60b0d9e,ANGALO ACADEMY,36.055999755859375,-0.291999995708466,Primary,KEN,Kenya,
4dab74cf-be4e-394e-bcd4-68e00dd86af9,ANJALU MIXED DAY SECONDARY SCHOOL,37.9986572265625,0.349622994661331,Secondary,KEN,Kenya,
04549223-88cd-3efe-b135-935e332119fa,ANKAMIA,37.83045959472656,0.125949993729591,Primary,KEN,Kenya,
e91f3509-d5d8-3fcf-9c6e-b7ecddb4afd5,ANOINTED ACADEMY,36.88861083984375,-1.326460003852844,Primary,KEN,Kenya,
ff43e2b2-bfd9-34f1-a1d8-0da6f8ea7cb8,ANOLE,39.580970764160156,2.491182088851929,Primary,KEN,Kenya,
b545d76a-a98a-3697-8ca6-d12dda8b3def,ANONA,38.640560150146484,3.561480045318604,Primary,KEN,Kenya,
70bc11bc-6f6f-387f-b0c7-dcbeac45961a,ANSAM PIONEER SCHOOL,35.39943313598633,-0.771720588207245,Primary,KEN,Kenya,
d1a56e26-a42e-35bf-aa95-38218292d1bc,ANTUAMBUI SECONDARY SCHOOL,37.947879791259766,0.354613989591599,Secondary,KEN,Kenya,
4c420376-94ef-301b-bdfb-05874e2a33a7,ANTUBETWE KIONGO SECONDARY SCHOOL,37.984100341796875,0.335799992084503,Secondary,KEN,Kenya,
0afc26b8-ef80-3bab-a6f0-88201acd76e6,ANTUBOCHIU MIXED DAY SECONDARY SCHOOL,37.93939971923828,0.216639995574951,Secondary,KEN,Kenya,
3e1bc46b-9af1-3100-ac1a-8e62e2db5f11,ANWA SR ACADEMY,36.793399810791016,1.314200043678284,Primary,KEN,Kenya,
159de94e-940b-38b6-8a99-81c0aef0d0a3,AOLO,34.71900177001953,-0.418900012969971,Primary,KEN,Kenya,
9e7c2b6f-eef8-3412-9c86-8f92af06cf19,APOKOR HIGH SCHOOL,34.36671829223633,0.742780029773712,Secondary,KEN,Kenya,
fc2d8e4e-4eb0-306c-9529-4e9adc8598b8,APOKOR SECONDARY SCHOOL,34.27519989013672,0.535780012607574,Secondary,KEN,Kenya,
0d52fac1-2c44-3925-be54-4683a8c2cd32,APPLEGATE SCHOOL,34.751399993896484,0.310779988765717,Primary,KEN,Kenya,
5aa90de7-c786-3836-84e8-afed97d9065a,AQUINAS HIGH SCHOOL,36.86000061035156,1.029270052909851,Secondary,KEN,Kenya,
c3053735-83f9-3062-a374-8cd12fda0c9a,ARABIA BOYS SECONDARY SCHOOL,41.507999420166016,3.55839991569519,Secondary,KEN,Kenya,
94dc0ecf-96aa-3a40-af80-279dee7bf10d,ARAMA,35.71969985961914,0.030181000009179,Primary,KEN,Kenya,
ff8a8660-3855-3b66-af0c-809965f35d92,ARAMA HIGH SCHOOL,35.66189956665039,0.046369999647141,Secondary,KEN,Kenya,
71cf715a-f88b-3443-b37b-ecf517c6853c,A RAY OF HOPE ACADEMY,39.619998931884766,-4.021999835968018,Primary,KEN,Kenya,
04700dc4-e4dd-33f7-8bdc-d16f472facc6,ARBAJAHAN,39.01417922973633,2.063004493713379,Primary,KEN,Kenya,
7f539ef9-0c3e-3dce-b9e5-b3a8ba12b80a,ARCHBISHOP HENRY STREICHER SECONDARY SCHOOL,35.05598831176758,1.191409945487976,Secondary,KEN,Kenya,
cd0d87ec-ef42-3806-9f6f-a77919e3a3fc,ARCH BISHOP KIRIMA ACADEMY,37.0495491027832,0.423370003700256,Primary,KEN,Kenya,
decd76fb-44fc-3276-ad41-1e5efcb1e843,ARCHBISHOP NDAMBUKI ABC YONGONI ACADEMY,37.326881408691406,-1.605010986328125,Primary,KEN,Kenya,
1671604b-4fa1-33fc-b162-44205d7b9924,ARCHBISHOP NDINGI SECONDARY SCHOOL,36.449058532714844,-0.733240008354187,Secondary,KEN,Kenya,
10f3a3eb-091d-362a-932e-a7e40e57541a,ARCHBISHOP NJENGA GIRLS' HIGH SCHOOL,34.97700119018555,0.638700008392334,Secondary,KEN,Kenya,
f11faf6f-50c9-3514-94b2-777f41d32c4c,AREGERIOT,35.36238098144531,-0.619050025939941,Primary,KEN,Kenya,
abdc05c8-1ce3-3db6-b836-d9db712a89a8,ARIMI MIXED DAY SECONDARY SCHOOL,35.85100173950195,-0.279900014400482,Secondary,KEN,Kenya,
a85c16aa-2df6-3630-8af0-18a4457da157,ARKROAD ACADEMY,36.89939880371094,-0.327890008687973,Primary,KEN,Kenya,
606b3ed1-b9e1-35f4-8f0a-a4308a34685b,ARORWET SECONDARY SCHOOL,35.58512878417969,-0.569930016994476,Secondary,KEN,Kenya,
6b625eb1-e720-362f-afb3-f8cd3b2c265b,A ROSE OF SHARON ACADEMY,36.79169845581055,-1.298820018768311,Primary,KEN,Kenya,
997e3830-e08f-355e-aceb-674eec2cd4b0,ARUNDA,34.465999603271484,-0.540199995040894,Primary,KEN,Kenya,
40b26e00-3402-34f1-beff-18c1ba05ddbd,ARUS,36.126548767089844,-0.107260003685951,Primary,KEN,Kenya,
56787d90-14f6-3780-a38b-22f8511ac1ce,ARUS,36.16608428955078,0.031765799969435,Primary,KEN,Kenya,
8cdff50a-04a0-3990-b451-4b35885f8058,ARYA SAMAJ HIGH SCHOOL,36.48760986328125,-1.376219987869263,Secondary,KEN,Kenya,
093a60b5-547e-3fcf-9120-535be79e9e45,ASAL PRIMARY SCHOOL,41.23305130004883,3.929470062255859,Primary,KEN,Kenya,
9b7075a9-4f9d-3305-b7b2-16cec14a3604,A.S.E. ST BRIGIDS ACADEMY,35.54499816894531,0.467999994754791,Primary,KEN,Kenya,
ba4b0bdc-bcb9-3e77-99ec-90c445e21c0b,ASHABITO GIRLS SECONDARY SCHOOL,40.854000091552734,3.566900014877319,Secondary,KEN,Kenya,
88b2f492-9bc1-38f7-88d4-713e90457ee7,ASHABITO SECONDARY SCHOOL,40.8802490234375,3.553169965744019,Secondary,KEN,Kenya,
d00cc5fe-0207-3775-a321-f2fcca669c6d,ASILONG CHRISTIAN HIGH SCHOOL,34.959739685058594,1.562307953834534,Secondary,KEN,Kenya,
d65447d8-8c9d-334a-bc80-da8f106c9e60,ASING'E  MIXED DAY SECONDARY SCHOOL,34.17599868774414,0.548799991607666,Secondary,KEN,Kenya,
9489c8fb-7af0-320b-8471-58b581d285bb,AS-SALAAM HIGH SCHOOL,36.82978057861328,-1.316612005233765,Secondary,KEN,Kenya,
a7f4e6b6-0f92-3b01-81fb-c3b7e43a7a3d,ASUMBI GIRLS,34.57270050048828,-0.493099987506866,Secondary,KEN,Kenya,
86cd1751-a80e-3665-8aad-c587b22b28d9,ATEBWO ACK PRIMARY SCHOOL,35.04999923706055,0.036299999803305,Primary,KEN,Kenya,
e4a6b0f5-cac1-329c-a311-942dd6bec21e,ATELA SECONDARY SCHOOL,35.00421905517578,0.418945014476776,Secondary,KEN,Kenya,
68c7ef84-d3b0-362b-8ed4-3acb674d8c63,ATHAARA PRIMARY SCHOOL,37.15591049194336,-0.893473982810974,Primary,KEN,Kenya,
c932bd76-61c7-3423-937e-ebb997d333ed,ATHINAI,35.57389831542969,-0.041430000215769,Primary,KEN,Kenya,
649c71e1-2bf0-30db-8bc1-edcb293d5c88,ATHI RIVER SUB COUNTY PRIVATE CENTRE,36.98489761352539,-1.456378221511841,Secondary,KEN,Kenya,
59e5470f-77ae-36cb-838d-43e8e226d5a9,ATHIRU GAITI SECONDARY SCHOOL,37.98027801513672,0.203396007418633,Secondary,KEN,Kenya,
cc4687dd-223f-3a88-a113-7cfce5cd7c20,ATHIRU RUUJINE,37.96670150756836,0.301939994096756,Primary,KEN,Kenya,
7b5e0571-a02a-34b4-b805-9a69ce44eb61,ATHI SPECIAL SCHOOL,37.97336959838867,0.212603002786636,Primary,KEN,Kenya,
d7fcfc0f-a4fb-3825-abf1-de6236fb3683,ATILILI,34.2619514465332,-0.108479999005795,Primary,KEN,Kenya,
fa3844ad-4edf-3cd5-acc8-7ddb0feda89c,ATLAS PRIMARY SCHOOL,36.84648895263672,-1.276299953460693,Primary,KEN,Kenya,
c4a51db3-27d1-3ca3-94ad-47bece049343,AT-TWAIBAH,39.39590072631836,-4.030300140380859,Primary,KEN,Kenya,
561e1777-52a1-3969-8aea-87261bc1374e,AUKI SECONDARY SCHOOL,37.93199920654297,0.226199999451637,Secondary,KEN,Kenya,
d02b7db2-16b5-3005-a55d-dfd716c977e4,AWASI,35.06397247314453,-0.176387652754784,Primary,KEN,Kenya,
da7867c6-7c08-37df-a6bd-1ea82ca15575,AWASI PAG BOYS HIGH SCHOOL,35.07389831542969,-0.161489993333817,Secondary,KEN,Kenya,
04f56b60-6243-3543-b680-c20e6b4c68e1,AWASI P.A.G. GIRLS' SECONDARY SCHOOL,35.08599853515625,-0.168999999761581,Secondary,KEN,Kenya,
cab98eaa-d57a-3114-8fd1-fbda4ac80d49,AYANY,36.776798248291016,1.307800054550171,Primary,KEN,Kenya,
f0305780-343c-312b-9b13-3a5b7f88e802,AYORA MIXED SECONDARY SCHOOL,34.66149139404297,-0.897979974746704,Secondary,KEN,Kenya,
883368cb-c2f7-3a4e-a48f-4ca9996c6b73,AYUB SAVULA SECONDARY SCHOOL,34.948028564453125,0.682919979095459,Secondary,KEN,Kenya,
9fef8214-d9c3-3cd9-aed2-cd725cf96df2,AYUCHA,35.079498291015625,-0.164800003170967,Primary,KEN,Kenya,
1276d734-b20f-308e-86dd-bf0823c7b59e,BAARI SECONDARY SCHOOL,36.40840148925781,0.021800000220537,Secondary,KEN,Kenya,
a7f4eb49-6adb-391c-98d8-fef45c538073,BAAWA MIXED DAY SECONDARY SCHOOL,36.74599838256836,0.882700026035309,Secondary,KEN,Kenya,
3e643ce7-90a8-394c-babd-68b03624581b,BABA DOGO SACRED,36.52450180053711,1.14520001411438,Primary,KEN,Kenya,
aefa098d-58a1-3a09-a6fc-321626129e7a,BABA DOGO SECONDARY SCHOOL,36.887149810791016,-1.2430100440979,Secondary,KEN,Kenya,
daf71055-f3b9-3850-a298-4c8be767a509,BABLA DIANI SECONDARY SCHOOL,39.55400085449219,-4.303400039672852,Secondary,KEN,Kenya,
6db684df-072c-32aa-b34d-84531404c6de,BAGARIA SECONDARY SCHOOL,36.04059982299805,-0.485700011253357,Secondary,KEN,Kenya,
e5e85aa2-6572-3066-a571-bdcc7d9173ac,BAHARI GIRLS SECONDARY SCHOOL,39.80799865722656,-3.674000024795532,Secondary,KEN,Kenya,
35b1e664-780f-342a-84bb-01fd179488c9,BAHATI,40.02745056152344,1.74865996837616,Primary,KEN,Kenya,
e0887a84-7832-3e73-9116-0e2a6826d77b,BAHATI DAY SECONDARY SCHOOL,36.14442825317383,-0.225519999861717,Secondary,KEN,Kenya,
e6bd5a11-b32e-30dc-ba33-106bad62d819,BAHATI GIRLS BOARDING,36.14894104003906,0.151562601327896,Primary,KEN,Kenya,
660ddf55-17ff-3446-9cef-017917e6d952,BAHRAIN HIGH SCHOOL,39.64149856567383,-0.443199992179871,Secondary,KEN,Kenya,
67a0fb47-888c-347d-a527-a877719bf7c1,BAITUL HIKMA,39.65004348754883,-0.46459499001503,Primary,KEN,Kenya,
4a15c272-d5e3-38bc-ba45-c5330ddf1530,BAKISA GIRLS SECONDARY SCHOOL,34.768798828125,0.615440011024475,Secondary,KEN,Kenya,
b9b7c791-fa29-3668-b2ea-c1718730a55b,BALAMBALA SUB COUNTY PRIVATE CENTRE,39.055110931396484,-0.038740001618862,Secondary,KEN,Kenya,
793d2a57-ae84-3df5-ad9b-84f5368f0a2a,BALOZI SCHOOL,36.863651275634766,-1.261330008506775,Secondary,KEN,Kenya,
ecee4428-babc-3aa2-8f60-e82a940bd53c,BAMBURI PRIMARY SCHOOL,39.70075225830078,-3.97234582901001,Primary,KEN,Kenya,
c985f565-c713-359b-b01f-374c861cf4f5,BANDA MIXED DAY AND BOARDING,34.592498779296875,-0.847599983215332,Secondary,KEN,Kenya,
9644e1b1-56e9-3697-8cd6-7a21616e5ba2,BANGALI,39.01797103881836,-0.726599991321564,Primary,KEN,Kenya,
0c12d83d-e90f-36ae-83d4-9d43445f2430,BANISA GIRLS SECONDARY SCHOOL,40.32789993286133,3.92920994758606,Secondary,KEN,Kenya,
0b612944-eca0-32be-9e0e-f3bca498236a,BANISA MIXED SECONDARY SCHOOL,40.35609817504883,3.946039915084839,Secondary,KEN,Kenya,
8d7a6e3c-dfec-3781-b9e6-61e5b04a0465,BANISA  SUB COUNTY PRIVATE CENTRE,40.34700012207031,3.942790031433105,Secondary,KEN,Kenya,
ba063339-0ca9-3ca6-b9f5-d8f9a522dd0b,BAOSA ACADEMY,34.396244049072266,0.656729996204376,Primary,KEN,Kenya,
7c70165d-7aea-33cc-8282-7db9304362c1,BARAKA ACADEMY -MANGO,37.43442916870117,1.389510035514832,Primary,KEN,Kenya,
b49bac42-5244-344e-985c-0af57ed4a047,BARAKA FAITH BAPTIST ACADEMY,39.14802551269531,-4.53349781036377,Primary,KEN,Kenya,
cfe60399-6d3d-3719-a14b-66e2d6ace854,BARAKA - MAKADARA,36.80380630493164,-1.259895205497742,Primary,KEN,Kenya,
85795036-fbb5-3ce1-9c10-6bedf6784b84,BARAKA PRIMARY,39.680198669433594,-3.505160093307495,Primary,KEN,Kenya,
e8e22ba7-aabb-32c8-82a8-f1b8548b8ac4,BARAKA SCHOOL,35.073001861572266,0.199000000953674,Primary,KEN,Kenya,
7ff82969-b3e0-3252-b81b-11c5474e5f57,BARANI SECONDARY SCHOOL,40.112701416015625,3.219029903411865,Secondary,KEN,Kenya,
e466d324-6480-3e12-bfdc-639e3f41491d,BARBARCHUN,35.82118225097656,0.772599995136261,Primary,KEN,Kenya,
02b31b3d-3a8b-3d4d-87cd-94fbdf452a9b,BARDING SECONDARY SCHOOL,34.32699966430664,0.01480000000447,Secondary,KEN,Kenya,
72077428-0b21-37d5-b4be-221018056924,BAREKEIWO,35.37080383300781,0.202653005719185,Unknown,KEN,Kenya,
c7d6808c-5e0a-3632-929a-ea39839ed22a,BAREKEIWO MIXED SECONDARY SCHOOL,35.36996841430664,0.198770001530647,Secondary,KEN,Kenya,
fb099154-6e98-3332-8af2-b4e9d6d8af40,BARICHO HIGH SCHOOL,37.22962188720703,-0.553020000457764,Secondary,KEN,Kenya,
6f52442d-a878-3132-8621-ec1b561d79a8,BARINGO BOYS HIGH SCHOOL,35.625999450683594,0.039099998772144,Secondary,KEN,Kenya,
005c4f17-7896-3f5b-b192-dbf5feebefbd,BARINGO CENTRAL SUB COUNTY PRIVATE CENTRE,35.73432159423828,0.49753999710083,Secondary,KEN,Kenya,
1be5026b-81a7-3899-987a-70e90fd8b906,BARKOWINO SECONDARYSCHOOL,34.32761001586914,-0.095150001347065,Secondary,KEN,Kenya,
c3dadb85-1d12-3caf-bdb8-0df61243c76b,BARPELLO HIGH SCHOOL,35.89741134643555,1.167809963226318,Secondary,KEN,Kenya,
99e6e492-1c9e-3466-b079-f698ef050b98,BARSAIYAN PRIMARY SCHOOL,35.25559997558594,0.266479998826981,Primary,KEN,Kenya,
26bca4e3-298c-36ab-b550-1d802daad6f2,BARSALOI MIXED DAY SECONDARY SCHOOL,36.702999114990234,1.086199998855591,Secondary,KEN,Kenya,
1ee1302c-8dfa-32cb-bab4-b7094d4f81bf,BARSIELE SECONDARY SCHOOL,35.48013687133789,-0.189884006977081,Secondary,KEN,Kenya,
6706282c-0d93-359e-b4db-34bcce8fb32e,BARTMORE HIGH  SCHOOL,36.14787673950195,-0.331557005643845,Secondary,KEN,Kenya,
798b4cd2-ff3d-323c-841d-b9b105007a56,BASHRAHEIL HIGH SCHOOL,39.707000732421875,-4.0,Secondary,KEN,Kenya,
27f47612-410d-3702-ac24-c00dd3058c62,BASHRAHIL ACADEMY,39.68389892578125,-4.0282301902771,Primary,KEN,Kenya,
b2164c2d-4437-33b2-b552-b6a70aaa796e,BATHI SECONDARY SCHOOL,36.63356018066406,0.97654002904892,Secondary,KEN,Kenya,
af8fdd72-b093-31e5-8e25-f33685222ebc,BATIAN CHRISTIAN SCHOOL,36.704200744628906,-1.278900027275085,Secondary,KEN,Kenya,
8383f545-ac1c-3bfa-b310-870d0954dcf6,BAVUNI SECONDARY SCHOOL,36.14680099487305,0.156739994883537,Secondary,KEN,Kenya,
2647bfb9-26ea-3e6e-8d38-e6ec939a4027,BCFC CHRISTIAN ACADEMY,35.08808898925781,1.245602965354919,Secondary,KEN,Kenya,
1c2a9db7-350c-3035-9465-6d9c728cb179,BCFC CHRISTIAN ACADEMY,35.122344970703125,1.246469974517822,Primary,KEN,Kenya,
b08d15d0-7042-39a4-9fc8-381a459c80b1,BEKIBON SECONDARY SCHOOL,35.88459014892578,0.335283011198044,Secondary,KEN,Kenya,
1bce8f63-7bb4-3c97-bcd5-2dbca3fb8791,BELGUT,35.43452835083008,0.731010019779205,Primary,KEN,Kenya,
8ab615c7-68e9-3726-94a7-642fdf105dbb,BENANE,38.66551971435547,0.42738750576973,Primary,KEN,Kenya,
75b10a3d-e68b-3fe7-8230-f0c6cae677ac,BENEDITO HIGHWAY COMPLEX,37.1549186706543,-0.738510012626648,Primary,KEN,Kenya,
efa657aa-0798-3dc2-adef-6256794c2544,BENEVOLENT HOPE ACADEMY,34.86397171020508,0.469370007514954,Primary,KEN,Kenya,
a413a51b-3d95-32ec-a1e5-e73acd52891b,BENONIN SECONDARY SCHOOL,35.7234992980957,0.047309998422861,Secondary,KEN,Kenya,
82fdbba2-e81e-3be3-9a49-ba7e91aa15b1,BENYOKA,39.56329345703125,-3.936121940612793,Primary,KEN,Kenya,
f66741e3-900b-305a-81fb-98524e9e64df,BERAPH JUNIOR ACADEMY,39.697601318359375,-3.997289896011353,Primary,KEN,Kenya,
91a39de6-fa04-3f26-a040-9f2799f415c4,BETAN ACADEMY KOITABMAT,35.25709915161133,-0.277799993753433,Primary,KEN,Kenya,
d72594d2-8aea-32ef-ae6b-1ca969fa1804,BETHA ACADEMY,37.23870086669922,0.084629997611046,Primary,KEN,Kenya,
3bd07de8-a228-31a7-b201-94628392b4ed,BETHEL JUNIOR ACADEMY,35.307899475097656,0.474020004272461,Primary,KEN,Kenya,
220805c5-33a4-3b08-96e3-b5ac8f3bd26c,BETHLEHEM SENIOR SCHOOL,36.985389709472656,-1.139400005340576,Secondary,KEN,Kenya,
b9525ccf-2a96-342b-8a11-255fa12e07ab,BEVERLY SCHOOLS OF KENYA,36.55400085449219,-0.628000020980835,Secondary,KEN,Kenya,
190aee5b-371e-356d-83a2-72cf934ae072,BHADALA SECONDARY SCHOOL,39.66099166870117,-4.044360160827637,Secondary,KEN,Kenya,
57c455ed-119d-3f1c-9bc1-dcbf385b1ae2,BIDI GREEN VALLEYS ACADEMY,35.017879486083984,1.038089990615845,Primary,KEN,Kenya,
7072b1af-d8a7-395d-bc29-57c54ce75d8f,BIDII PREMIER SCHOOL,36.723899841308594,-1.219509959220886,Primary,KEN,Kenya,
bc2a6e3b-239d-365e-940a-93862ff1423e,BIDII PRIMARY SCHOOL,36.88130187988281,-1.285500049591064,Primary,KEN,Kenya,
72599236-8055-31c0-9dfd-755c559e9ee4,BIDII SELF HELP,36.735652923583984,-1.275434017181396,Primary,KEN,Kenya,
8aff160c-51e3-3494-96b6-f3a24a241d20,BIKEKE,35.05242919921875,0.970439970493317,Primary,KEN,Kenya,
42a37356-372d-399f-b00f-a75df4fbfa41,BILIBILI FYM,34.8390007019043,0.794799983501434,Primary,KEN,Kenya,
02922e40-74f8-39cc-ae81-92b9dc59e14e,BINGWA SECONDARY SCHOOL,37.12576675415039,0.040180999785662,Secondary,KEN,Kenya,
197032b8-f129-3fb6-8638-06b3655a9135,BIRIBIRIET,35.1797981262207,1.030030012130737,Primary,KEN,Kenya,
4015a753-e006-3557-bd32-eed29592cc4d,BIRITHIA SECONDARY SCHOOL,36.94353103637695,-0.524110019207001,Secondary,KEN,Kenya,
ca9cb719-b0d3-3867-bf01-4a1982fcbbe2,BIRUNDA HIGH SCHOOL,34.92216110229492,0.956579983234406,Secondary,KEN,Kenya,
89f74f60-c4f5-3fc9-a8d2-2f311edbc473,BISHOP ABIERO GIRLS MAGWAR SECONDARY SCHOOL,34.41305160522461,-0.250990003347397,Secondary,KEN,Kenya,
673f5211-8d2e-3bb0-ad56-4c274d3836ea,BISHOP ABIERO ORUGA MIXED SECONDARY SCHOOL,34.51780319213867,-0.102701000869274,Secondary,KEN,Kenya,
2bfa48cc-1479-3a80-8a14-2e3e8a09191b,BISHOP BALDACCHINO SECONDARY SCHOOL,40.05575942993164,3.254559993743896,Secondary,KEN,Kenya,
4a755ce3-25b0-3828-8c11-536605083d3b,BISHOP CAVALLERA,38.094032287597656,2.704660892486572,Primary,KEN,Kenya,
d4f5c598-9ddd-3640-b950-95c06df3baed,BISHOP CHARLES MUGENDI SECONDARY SCHOOL,34.738040924072266,-0.668680012226105,Secondary,KEN,Kenya,
d2d9bd61-b96c-320f-aebb-d928b2c5d890,BISHOP EDWARD DONOVAN SECONDARY SCHOOL,36.146690368652344,-0.156000003218651,Secondary,KEN,Kenya,
2b5cc59f-bb18-3eea-b9b1-00179ef277ac,BISHOP GATIMU KINYONA GIRLS SECONDARY SCHOOL,36.83000183105469,0.756179988384247,Secondary,KEN,Kenya,
903ee5a5-30a8-3bd1-890c-75798312451f,BISHOP JOHN NJENGA SECONDARY SCHOOL,37.71200180053711,3.197999954223633,Secondary,KEN,Kenya,
8ef82293-73ea-38c9-b5b5-2f9a78f45cab,BISHOP KAMAU  NGECHA GIRLS HIGH SCHOOL,36.68024826049805,-1.174492955207825,Secondary,KEN,Kenya,
4879bac3-00fe-3270-9ab9-482848f091a8,BISHOP LAWI IMATHIU MIXED DAY SECONDARY SCHOOL,37.6697998046875,0.1216000020504,Secondary,KEN,Kenya,
dee8c06a-106b-3503-a94f-4602c50264f1,BISHOP LOUIS PIARO  NGARE NARO SECONDARY SCHOOL,36.362998962402344,0.032900001853704,Secondary,KEN,Kenya,
b9fe831e-bae5-3f4d-a8db-d8f9bd1fc30d,BISHOP MAKARIOS BOYS - KESENGEI,34.84669876098633,0.017000000923872,Secondary,KEN,Kenya,
12b9a608-b9cd-3ecd-8473-a8f3a35f3f15,BISHOP MCCARTHY MONTESSORI ACADEMY,37.487060546875,1.097509980201721,Primary,KEN,Kenya,
dbd3093c-4db9-3aea-9f05-df046bba34a8,BISHOP MUGE MEMORIAL,34.952213287353516,0.505485117435455,Primary,KEN,Kenya,
01d307d5-1048-3f41-aa82-3e71516dd6c9,BISHOP MUGENDI NYAKEGOGI SECONDARY SCHOOL,34.77510070800781,-0.750530004501343,Secondary,KEN,Kenya,
15c8b1c6-c75d-31c0-8921-6a09d1240ede,BISHOP MUGENDI SECONDARY SCHOOL,34.12822723388672,-0.552567005157471,Secondary,KEN,Kenya,
8c7bd683-ca67-32af-95fa-9df352a18a85,BISHOP MUGE SUBUKIA SECONDARY SCHOOL,35.51279830932617,0.009800000116229,Secondary,KEN,Kenya,
8468fe62-61c1-321d-afd7-ddbc4232ab20,BISHOP NEO KONGAI SECONDARY SCHOOL-KITAOR,34.89537048339844,0.025399999693036,Secondary,KEN,Kenya,
a563a04b-a328-3552-bcc1-2335a62eabc6,BISHOP ODERA AGONGO SECONDARY SCHOOL,34.47800064086914,0.875999987125397,Secondary,KEN,Kenya,
7745a0ea-2742-3598-9aaa-56f9a2ef79d5,BISHOP OKOTH GIRLS'- MBAGA SECONDARY SCHOOL,34.2775993347168,0.077990002930164,Secondary,KEN,Kenya,
0f69df53-5e56-32d7-a167-d8cf9295b987,BISHOP OKOTH MIRANGA SECONDARY SCHOOL,34.57874298095703,-0.075298547744751,Secondary,KEN,Kenya,
e9615a74-6e0c-3522-aed9-03a16ae482fe,BISHOP OKULLU MAGARE GIRLS' SECONDARY SCHOOL,34.419498443603516,-0.561999976634979,Secondary,KEN,Kenya,
55ba28ca-ad9c-31c8-bc57-8b865953db16,BISHOP PAUL MUTUA HIGH SCHOOL,37.636993408203125,-1.331177949905396,Secondary,KEN,Kenya,
c46e4f10-6f2c-37de-bd7a-0262e492d2f4,BISHOP PHILIP ANYOLO NTIMARU GIRLS SECONDARY,34.68701171875,-1.331599950790405,Secondary,KEN,Kenya,
1eaa1c65-04bf-3488-8924-4a538f1a51f4,BISHOP PHILIP ANYOLO SECONDARY SCHOOL KAKAMWE,34.94001007080078,0.804910004138947,Secondary,KEN,Kenya,
6a04a695-737b-3485-b26f-9e390d870807,BISHOP SULUMETI CHELELEMUK GIRLS HIGH SCHOOL,34.2130012512207,0.374099999666214,Secondary,KEN,Kenya,
61b05d9e-e153-3e17-ae1a-5849e10a217f,BISHOP SULUMETI GIRLS SECONDARY SCHOOL,34.76531982421875,0.273019999265671,Secondary,KEN,Kenya,
c2b3da11-07a2-3593-b5c4-ebdb5adc0936,BISHOP WAKHUNGU ACADEMY,35.00558090209961,1.113649964332581,Secondary,KEN,Kenya,
dbedfe53-11c9-3fea-8ced-54c0ead3958e,BISHOP WILLIAM DUNNE MUTHUE SECONDARY SCHOOL,38.265201568603516,-1.925600051879883,Secondary,KEN,Kenya,
043afbf5-2663-3f1a-87b5-c4c7b4b80f05,BISUNU,34.84199905395508,0.5314000248909,Primary,KEN,Kenya,
0b8b4c2f-b381-3c9c-bcc9-4040e8dcd6e8,BISUNU FRIENDS SECONDARY SCHOOL,34.500999450683594,0.700739979743958,Secondary,KEN,Kenya,
02f14dae-ab55-3c48-b355-9ee63727a6c0,BIWOTT SECONDARY SCHOOL,35.5610466003418,0.330538004636765,Secondary,KEN,Kenya,
9a5557e5-f93f-3f2a-9d7f-d9761cff6e2a,BIYAMATHOW MIXED DAY AND BOARDING SECONDARY SCHOOL,40.41849899291992,0.622470021247864,Secondary,KEN,Kenya,
599a02c1-5de6-3f43-a069-111457e5c06d,BLESSED GENERATIONS HIGH SCHOOL,36.962711334228516,-1.121538162231445,Secondary,KEN,Kenya,
86e9d821-846f-3374-b506-ac9765899eca,BLESSED MUGUTHA SECONDARY SCHOOL,36.949798583984375,-1.113479971885681,Secondary,KEN,Kenya,
124a38c9-02aa-3569-8de2-0c6cb178e5a2,BLESSED MUSTARD SEED SECONDARY SCHOOL,36.57849884033203,-0.097433000802994,Secondary,KEN,Kenya,
6e2ab38a-2d83-37e5-8cd3-9a3e6bdf2a0f,BLESSED SEED SCHOOL,36.33599853515625,-0.490599989891052,Primary,KEN,Kenya,
c4b20098-862a-331d-b952-3f340e796dcd,BLESSED TO BLESS ACADEMY,34.7158317565918,0.267549991607666,Primary,KEN,Kenya,
46c9b97d-e043-3cb5-8e1f-b8f73cdb4d61,BLESSED TRINITY JUNIOR SCHOOL,36.944801330566406,-1.394070029258728,Primary,KEN,Kenya,
113cb95c-28d3-348e-939e-828f09903d48,BLUE LIGHT OF PRINCE ACADEMY,34.86650085449219,3.706650018692017,Primary,KEN,Kenya,
76015a54-efda-3fd1-b00b-f1d0cdd934cf,BLUE OCEAN ACADEMY,39.39404296875,-4.025300025939941,Primary,KEN,Kenya,
2df8c774-591c-386b-942c-f0d7336c2c88,BLUE RIBBON ELITE SCHOOL,37.10559844970703,-1.074300050735474,Secondary,KEN,Kenya,
c018a39f-ad9d-3766-a561-c9b38b21697b,BLUE STAR ACADEMY,36.90513229370117,-1.26326596736908,Primary,KEN,Kenya,
87a98b83-5509-35f8-91e3-fcb4f9460e7e,BOA PRIMARY SCHOOL,39.70940017700195,1.84975004196167,Primary,KEN,Kenya,
1661e784-6046-31ed-86f1-8c1e6bec8e14,BOBARACHO D.O.K,34.77808380126953,0.677640020847321,Primary,KEN,Kenya,
a73b155a-d9d6-3166-90a6-a05eab5d040d,BOBEMBE ELCK,34.90919876098633,0.558099985122681,Primary,KEN,Kenya,
b6b413ed-e424-3a9e-9669-808b75b069b3,BOCHARIA PAG,34.932861328125,-0.754268407821655,Unknown,KEN,Kenya,
9fbfdeaa-ae5e-3d44-8c47-36808308b10d,BOCHARIA PAG MIXED SECONDARY SCHOOL,34.941001892089844,0.760999977588654,Secondary,KEN,Kenya,
c029e799-4246-3d30-9f54-d90ee4d7c909,BODI MIXED SECONDARY SCHOOL,34.54560089111328,-0.214200004935265,Secondary,KEN,Kenya,
97882867-7af7-30c7-860f-093df349414e,BOFA SECONDARY SCHOOL,39.867698669433594,3.587599992752075,Secondary,KEN,Kenya,
791c9099-f511-3767-978c-1ee21673f103,BOFU SECONDARY  SCHOOL,39.433998107910156,-3.978709936141968,Secondary,KEN,Kenya,
ce6fb7ee-7166-32c5-87c9-146d1ca8c9dd,BOGECHE DOK SECONDARY SCHOOL,34.91453170776367,-0.773419976234436,Secondary,KEN,Kenya,
1892e25f-2a45-37da-a4e4-38cab825d538,BOGICHONCHO SECONDARY SCHOOL,34.66640090942383,-0.874599993228912,Secondary,KEN,Kenya,
da9ec744-18a7-3d63-be8e-daec6827261a,BOGIRANGO PREPARATORY SCHOOL,35.02766036987305,-0.530229985713959,Primary,KEN,Kenya,
d84ec804-3e13-3d36-a215-b52672347ede,BOGITAA MIXED ELCK SECONDARY SCHOOL,34.67580032348633,-0.628170013427734,Secondary,KEN,Kenya,
b1a81e9c-1abc-3d62-9ef2-2ccc7fdb5d0d,BOITO,35.53200149536133,0.024399999529123,Primary,KEN,Kenya,
f43cc378-961c-3c5d-ae73-38ac4193611b,BOITO DAY SECONDARY SCHOOL,35.23659896850586,-0.600614011287689,Secondary,KEN,Kenya,
7e491826-2ce2-3ea0-a7db-c66d6689065a,BOITO SECONDARY SCHOOL,35.23691940307617,-0.595250010490417,Secondary,KEN,Kenya,
f76e9dc0-9a32-3101-b133-7daea4c62e74,BOMANI SECONDARY SCHOOL,40.643798828125,-2.381700038909912,Secondary,KEN,Kenya,
d1c5ba4b-f98b-3b22-a6d9-7bea7dbd02b2,BOMBABA MIXED SECONDARY SCHOOL,34.76599884033203,-0.864000022411346,Secondary,KEN,Kenya,
1ccfebbb-bf59-3239-9b3c-24016776c143,BOMET TOWNSHIP,35.318382263183594,-0.646502792835236,Primary,KEN,Kenya,
ede4af35-92f0-372c-b179-7d6777ac8db4,BOMU,39.61399841308594,-4.026000022888184,Primary,KEN,Kenya,
45e0fcb3-8769-31f9-86d1-38afc047f9f2,BOMU SECONDARY SCHOOL,39.61406326293945,-4.026388168334961,Secondary,KEN,Kenya,
bccfe29d-93c3-3a7c-80c1-0fe0fd514985,BONANZA ACADEMY,36.0,0.810800015926361,Primary,KEN,Kenya,
187932e1-c173-3b3b-ade8-31625dc4f0dd,BONANZA SCHOOL,37.45589828491211,-0.547599971294403,Primary,KEN,Kenya,
b7a67604-66a5-38b0-970d-1678cbd8eae4,BONDENI,36.91559982299805,-1.268700003623962,Primary,KEN,Kenya,
8a1d5068-797b-3b10-8e72-8f66aea0cda6,BONDENI,36.84925079345703,-0.330659985542297,Primary,KEN,Kenya,
ee9ac3b0-126f-35ae-a357-7edd51f3229b,BONDENI - KWANZA,34.876712799072266,1.219242811203003,Primary,KEN,Kenya,
7cc5541f-1835-37c3-97c5-5922a25f0871,BONDENI - MVITA GIRLS,39.573829650878906,-4.175627708435059,Primary,KEN,Kenya,
f7cb974b-80b8-3468-9544-06c37259891e,BONDO NYIRONGE SECONDARY SCHOOL,34.39630126953125,-1.104590058326721,Secondary,KEN,Kenya,
ce699e9c-8b72-3346-b8a8-d7d45a690e5b,BONDO OTUCHI,34.528099060058594,0.912670016288757,Primary,KEN,Kenya,
4cb357b2-a038-3016-8ce3-207e0caf42d6,BONDO TOWNSHIP SECONDARY SCHOOL,34.285850524902344,-0.114670000970364,Secondary,KEN,Kenya,
f07830e4-076c-34fb-8bc9-d4c65fe8348a,BONGE,34.69615936279297,-0.531859993934631,Primary,KEN,Kenya,
a3e77782-18ae-32a9-8f32-5ed23b3debe1,BONGEBO MIXED DAY AND BOARDING PRIMARY SCHOOL,34.71754837036133,-1.352180004119873,Primary,KEN,Kenya,
98020a2e-366e-30d5-84da-c9fbd45012ad,BONGO MIXED DAY SECONDARY SCHOOL,36.614585876464844,-0.772398054599762,Secondary,KEN,Kenya,
a573ac47-239f-3291-9e37-5af49ccf7aad,BONG'ONTA SECONDARY SCHOOL,34.9900016784668,-0.871999979019165,Secondary,KEN,Kenya,
3f05976a-fa24-3b27-8ed7-982992d89a1f,BONYAIGUBA DOK,34.891754150390625,-0.514052987098694,Primary,KEN,Kenya,
47afa06c-5068-3deb-a8ef-695643151ba4,BONYAKONI,34.9379997253418,-0.856000006198883,Primary,KEN,Kenya,
a964209d-a737-3a34-9bd1-1e9e2b1fb3a4,BOOKSHINE EDUCATION CENTRE,36.93239974975586,-1.2291020154953,Secondary,KEN,Kenya,
bc87b5b5-bcbe-378c-bc8b-0011a184ab91,BOQOL SOON ACADEMY,36.84489822387695,-1.271289944648743,Secondary,KEN,Kenya,
381b3b4b-464d-379c-9c2a-3ae0ab78759d,BORANGI P.A.G SECONDARY SCHOOL,34.86193084716797,-0.840330004692078,Secondary,KEN,Kenya,
26a81a34-69aa-38a1-b025-4dd317cae114,BORBORWET,35.21353530883789,-0.342862010002136,Primary,KEN,Kenya,
a1de5c07-8056-3e3f-8309-1dced31f1239,BORBORWET SECONDARY SCHOOL,35.2158088684082,-0.343450009822845,Secondary,KEN,Kenya,
988e022a-1c90-340b-84cf-e9525bcfaaed,BORDER POINT ONE,41.88740158081055,3.966870069503784,Primary,KEN,Kenya,
e1e4085c-43be-378d-aead-dd04d7e4b919,BORDER POINT SECONDARY SCHOOL,41.85581970214844,3.939471244812012,Secondary,KEN,Kenya,
afef8d13-9699-31da-b5d0-c07b5cc46177,BOREHOLE 11 SECONDARY SCHOOL,40.917999267578125,2.769099950790405,Secondary,KEN,Kenya,
0248d92a-8a2a-361b-9b9e-86234eb86075,BOROKWO,35.80390167236328,0.307660013437271,Primary,KEN,Kenya,
db970721-7757-3ad0-ac0b-4bcf5de322d9,BORONYI MIXED SECONDARY SCHOOL,34.461700439453125,0.448000013828278,Secondary,KEN,Kenya,
27b4d123-b7a2-35d2-b009-25526c30d5b1,BOROR MIXED SECONDARY SCHOOL,35.8455810546875,-0.231140002608299,Secondary,KEN,Kenya,
0bdb78a1-810e-39f9-a0b8-2ead6bcb7b56,BORTOWN SECONDARY SCHOOL,34.84563064575195,3.728310108184814,Secondary,KEN,Kenya,
aabc0c89-919a-3c4f-af6f-87df3af1898f,BORUMA SECONDARY SCHOOL,34.858795166015625,-0.781734704971313,Secondary,KEN,Kenya,
fba62e03-d8f8-3dfa-b8dd-2c0657ec6286,BOSTON HIGH SCHOOL,36.907798767089844,1.275449991226196,Secondary,KEN,Kenya,
28417b2d-205f-396d-a60b-aabc28bc1e2a,BOURALGY,39.67477798461914,-0.508889019489288,Primary,KEN,Kenya,
5fe47088-3c4b-3346-82e9-13c6794348eb,BOYS TOWN SECONDARY,39.65393829345703,-0.446965992450714,Secondary,KEN,Kenya,
c71640bc-da1e-3f17-9f47-0d4b52a280e3,BO YUSUF SECONDARY SCHOOL,34.72480010986328,0.10351999849081,Secondary,KEN,Kenya,
ac1ba711-3f3c-3ab1-bccb-5414fa6c03b6,BRAINHOUSE SCHOOL,36.87496566772461,-1.252264976501465,Primary,KEN,Kenya,
322cd87f-2e07-32e7-9671-f67a71a5fc6e,BRIDGE INTERNATIONAL ACADEMIES-KWA HOLA,39.625999450683594,-4.025000095367432,Primary,KEN,Kenya,
c8160033-87a5-36d4-9453-adf0e2a1315f,BRIDGE INTERNATIONAL ACADEMIES-MAJENGO,34.720001220703125,0.081610001623631,Primary,KEN,Kenya,
affbeb01-4f0b-339c-a2a3-68fd2a74fabb,BRIDGE INTERNATIONAL ACADEMIES -MITUME,34.981868743896484,1.029000043869019,Primary,KEN,Kenya,
db76545d-17f5-3b4d-8d72-9b375334e4aa,BRIDGE INTERNATIONAL ACADEMIES - SIANY,34.75699996948242,0.098310001194477,Primary,KEN,Kenya,
afb41943-def2-35be-9043-3141f1fa4236,BRIDGE INTERNATIONAL ACADEMIES -TUWAN,34.981868743896484,1.029000043869019,Primary,KEN,Kenya,
8de71dc2-2110-38bd-8a03-e427ce71bf7b,BRIDGESTAR ACADEMY,35.81919860839844,0.175589993596077,Primary,KEN,Kenya,
7c25ca6f-64e2-3cee-b2c4-1b2ebd9b818c,BRIDGEWATER GIRLS' HIGH SCHOOL,35.94517135620117,-0.248070001602173,Secondary,KEN,Kenya,
ef8431de-9e0f-37a9-bb52-51a251e8380b,BRIGHT ANGELS HIGH SCHOOL,36.846099853515625,1.274119973182678,Secondary,KEN,Kenya,
f3c1f951-fb27-3b30-afd7-f6f28d49020b,BRIGHTER DAYS ACADEMY,37.667999267578125,-3.383800029754639,Primary,KEN,Kenya,
1b880f78-0548-3812-a219-fc94094c10d1,BRIGHT HIGH SCHOOL,39.689998626708984,-4.008999824523926,Secondary,KEN,Kenya,
7d6716e8-5497-33df-ac5e-5bd3180313f7,BRIGHTON INTERNATIONAL SCHOOL,36.99599838256836,-1.331699967384338,Primary,KEN,Kenya,
52451c96-29cf-312a-a112-6958b5e7b1ae,BRIGHTSTAR BOARDING GIRLS HIGH SCHOOL,37.366153717041016,0.613312900066376,Secondary,KEN,Kenya,
8f9fbb1e-dbca-3e07-9623-2f116bdec03f,BRIGHTSTAR SECONDARY SCHOOL,36.840999603271484,1.307209968566895,Secondary,KEN,Kenya,
4d2e6704-a46c-3391-a325-dbb61ca74b18,BROAD STAR,39.62099838256836,-4.038000106811523,Primary,KEN,Kenya,
0145e432-c554-37c9-9567-d5f475a9b145,BROADWAY SECONDARY SCHOOL,37.07550048828125,-1.048650026321411,Secondary,KEN,Kenya,
b4a9e893-4788-3fdc-a791-c2823ee4ec59,BROOKFIELD HIGH SCHOOL,37.132999420166016,-0.484100013971329,Secondary,KEN,Kenya,
f211dd09-832b-3e39-9f28-2396b0bdeebe,BROOK HILL SCHOOL,36.707096099853516,-1.114855051040649,Primary,KEN,Kenya,
dbeee5f9-0d77-385e-afea-ecee1603b227,BROOKSHINE SCHOOL,37.07612228393555,1.276975035667419,Secondary,KEN,Kenya,
61da11d1-ddd6-3b4c-9cda-49d3b9886864,BROOKSPRING EDUCATION CENTRE,36.9302864074707,-1.234882950782776,Secondary,KEN,Kenya,
9daa2227-8b4e-31c4-b529-e7e6ebec635e,BROOKS SCHOOL,35.22679901123047,0.56318998336792,Primary,KEN,Kenya,
f8f40be2-d436-3d1e-923b-30b23d727713,BROTHER NICHOLAS HIGH SCHOOL,34.125,0.452499985694885,Secondary,KEN,Kenya,
844e4f69-b397-301a-8702-8b6306e3fb10,BROTHER RICHARD DAVIDSON ACADEMY,35.81919860839844,0.175589993596077,Primary,KEN,Kenya,
b4202923-1ab8-3704-a222-4a3ab79b480d,BRUCEWOOD EDUCATION CENTRE,36.9109992980957,1.273800015449524,Secondary,KEN,Kenya,
34538ac8-bf0e-35cf-b6e8-dba40edebd50,BUBUBU BOYS SECONDARY SCHOOL,39.621700286865234,-0.408600002527237,Secondary,KEN,Kenya,
fbcc9a91-4a47-3a5f-a952-deb8c3b8d288,BUBUBU ELITE SCHOOLS,39.634498596191406,-0.408899992704391,Secondary,KEN,Kenya,
12705334-c57b-36ba-a544-5e43ecdd7357,BUCHANGU,34.666893005371094,0.445004761219025,Primary,KEN,Kenya,
fe350718-14d8-30ec-b1e5-3c4bf8e5045f,BUCHENGE DAY SECONDARY SCHOOL,35.3401985168457,0.264800012111664,Secondary,KEN,Kenya,
13996512-0121-37cd-ad7c-7b97f895259b,BUCHENYA GIRLS SECONDARY SCHOOL,34.52577209472656,0.228233695030212,Secondary,KEN,Kenya,
ed356b34-b03f-390e-873b-a01057cc09b9,BUCHIFI,34.44927215576172,0.29142490029335,Primary,KEN,Kenya,
1f3f4537-dad1-3f32-9fd0-05837ac63a7e,BUCHIFI MIXED SECONDARY SCHOOL,34.45071792602539,0.292612999677658,Secondary,KEN,Kenya,
8dc07e70-2efb-331c-9c5e-d1a6dd890e20,BUEMA R C,34.63600158691406,0.55349999666214,Primary,KEN,Kenya,
2f80958f-84b8-3e3b-80e0-d3ea8b2a89f1,BUGAR MIXED DAY SECONDARY SCHOOL,35.507869720458984,0.751927971839905,Secondary,KEN,Kenya,
6c6de9a8-9b66-3ce1-9289-18fa17398dab,BUGINA SECONDARY SCHOOL,34.7599983215332,0.126900002360344,Secondary,KEN,Kenya,
a64575ec-0c6d-3d80-af24-ba080c1b20b4,BUGO D.O.K,35.0,0.510999977588654,Primary,KEN,Kenya,
a62fc3e1-412e-3f5c-be02-420b3d4a3f56,BUGUTA PRIMARY SCHOOL,38.667301177978516,-3.691179990768433,Primary,KEN,Kenya,
fdc98a6a-b835-3642-8c3b-4894463b9372,BUHUYI SECONDARY SCHOOL,34.40700149536133,0.363499999046326,Secondary,KEN,Kenya,
470b2065-147f-3889-bbfd-345d4e88ca27,BUJUMBA BOYS' SECONDARY SCHOOL,34.217098236083984,0.319400012493134,Secondary,KEN,Kenya,
da9971fd-1c5d-3b69-a21d-be544b6075ce,BUKACHA SECONDARY SCHOOL,35.402259826660156,-0.749487996101379,Secondary,KEN,Kenya,
49e60300-f1c1-380e-b357-18314d6aac1b,BUKEKO,34.0619010925293,0.201379999518394,Primary,KEN,Kenya,
fe4e5999-7c8d-3c27-98f8-cff7d9cda48a,BUKEMBE S.A SECONDARY SCHOOL,34.652000427246094,0.598599970340729,Secondary,KEN,Kenya,
570e69ab-23fd-3611-a5fa-2f4892cba30c,BUKHALALIRE  SECONDARY  SCHOOL,34.28329849243164,0.317189991474152,Secondary,KEN,Kenya,
b87c73f0-dd65-37ca-b114-c9b4688e39fc,BUKOKHOLO GIRLS SECONDARY SCHOOL,34.55439758300781,0.766464293003082,Secondary,KEN,Kenya,
025c3c86-b27e-32c8-8ec8-3fe194889dcf,BUKOLWE SECONDARY SCHOOL,34.304710388183594,0.135690003633499,Secondary,KEN,Kenya,
97e2880e-c295-36ed-b314-c2db480d3dc4,BUKOMA SECONDARY SCHOOL,33.9630012512207,0.088500000536442,Secondary,KEN,Kenya,
19b5c8ba-cebd-3096-9a13-4b734e78a572,BUKULUNYA SECONDARY SCHOOL,34.741798400878906,0.106040000915527,Secondary,KEN,Kenya,
c9bf025c-c8d0-3b5a-b25e-511da0058e8a,BUKUNYE DAY SECONDARY SCHOOL,35.513710021972656,-0.809979975223541,Secondary,KEN,Kenya,
685078d5-d8ea-3941-acb2-f15d9b711922,BULA MPYA,36.82347869873047,1.291041731834412,Primary,KEN,Kenya,
678e9106-fe15-38de-9439-526bd24f29fb,BULAWASO SUNSHINE ACADEMY,37.583499908447266,0.345699995756149,Secondary,KEN,Kenya,
93c80ff3-4925-33ca-ba6c-9b6a64899590,BULESA SECONDARY SCHOOL,38.67266082763672,1.08117401599884,Secondary,KEN,Kenya,
8eaf0424-3193-3dda-8484-b9b820ed8146,BULIMBO,34.518001556396484,0.384600013494492,Primary,KEN,Kenya,
eba7434d-a55e-34f3-be35-e0242401504f,BULLA ELMI PRIMARY SCHOOL,40.10390090942383,-1.740100026130676,Primary,KEN,Kenya,
82ea45e9-2686-3b26-9611-d6a875ed7739,BULLA JUU PRIMARY SCHOOL,39.50188064575195,1.029099941253662,Primary,KEN,Kenya,
cd5ffde6-2315-3935-b8d6-2f5b92678a52,BULLA MPYA,41.863040924072266,3.939680099487305,Primary,KEN,Kenya,
a3242ac2-9156-3dbd-9a65-7a4c9fb93a6c,BUMALA A C SECONDARY SCHOOL,34.195499420166016,0.301789999008179,Secondary,KEN,Kenya,
59b4bad8-e437-33e2-bcec-c7791a04d79a,BUMULA BOYS SECONDARY SCHOOL,34.45884704589844,0.548959791660309,Secondary,KEN,Kenya,
e6e34b42-a829-3932-9d35-2221205d53ad,BUNGOMA BAPTIST GIRLS  HIGH SCHOOL,34.55659866333008,0.569519996643066,Secondary,KEN,Kenya,
a7790790-7dd3-3492-9df2-2264024230ac,BUNGOMA D.E.B.,34.55078887939453,0.573090016841888,Primary,KEN,Kenya,
183a78d2-6423-3757-a15b-7e2f55c43f8b,BUNGOMA EAST SUB COUNTY PRIVATE CENTRE,34.784000396728516,0.596400022506714,Secondary,KEN,Kenya,
22c6e881-0c42-30a6-9d5f-dceab3732ca5,BUNJOSI FRIENDS SECONDARY SCHOOL,34.713348388671875,0.696829974651337,Secondary,KEN,Kenya,
dece0624-fd52-3dd1-bd82-6fcbd22ae0d9,BUNYALA MODEL SECONDARY SCHOOL,34.0260009765625,0.140000000596046,Secondary,KEN,Kenya,
bd492bd2-8ffd-3fad-958e-c15bffea6e87,BUOYE,34.759910583496094,-0.528919994831085,Primary,KEN,Kenya,
7ca28d1e-693b-3d9c-9cda-3c39fe18f338,BURA BOARDING,39.94599151611328,-1.092200040817261,Primary,KEN,Kenya,
225a41fe-12bb-3dea-8502-72fce370e7c8,BURA GIRLS,38.31237030029297,-3.452680110931396,Secondary,KEN,Kenya,
0d6f9f05-6fa3-33b2-b21b-86c3f5c00713,BURAQ ACADEMY,40.133399963378906,3.233799934387207,Primary,KEN,Kenya,
2314c3e0-0275-3366-a13a-d6326e6bb0d4,BURDURAS  SECONDARY SCHOOL,39.902000427246094,3.853499889373779,Secondary,KEN,Kenya,
2de7d930-85ee-348c-aa84-dfe9ec380107,BURGEI,35.869110107421875,0.147170007228851,Primary,KEN,Kenya,
9082e034-e07f-33ba-8a19-42421a005229,BURGEI SECONDARY SCHOOL,35.87007141113281,-0.149759992957115,Secondary,KEN,Kenya,
26951748-0378-3e78-ab1c-e826e73e01e3,BURGEI SECONDARY SCHOOL,35.095001220703125,-0.792259991168976,Secondary,KEN,Kenya,
ae945498-390c-3dfa-a5a3-2334ab8bb78b,BURUBURU GIRLS SECONDARY,36.86199951171875,-1.294000029563904,Secondary,KEN,Kenya,
e3f76b1d-0912-3b60-9423-e5c36e48614e,BUSALI UNION SECONDARY SCHOOL,34.79880905151367,0.129060000181198,Secondary,KEN,Kenya,
c3210e13-d854-3bfd-874d-4700f2726c93,BUSARA ACADEMY,34.527198791503906,0.234830006957054,Primary,KEN,Kenya,
d96a3160-be2b-3160-bcc7-1c298491b744,BUSHIANGALA SECONDARY SCHOOL,34.685001373291016,0.188199996948242,Secondary,KEN,Kenya,
ca333f07-25e8-37b3-91e7-0aa6743655be,BUSIADA GIRLS' HIGH SCHOOL,34.266300201416016,0.312700003385544,Secondary,KEN,Kenya,
99e608c4-db6a-3b21-9e2b-f4f58b5ede92,BUSIA EBENEZER ACADEMY,36.77780532836914,-1.317862033843994,Primary,KEN,Kenya,
37fedd57-b99c-3d0c-9a17-f8db0d26e538,BUSIA TOWNSHIP SECONDARY SCHOOL,34.111000061035156,0.471399992704391,Secondary,KEN,Kenya,
152f3662-75ff-3904-b548-66931c996cbc,BUSIJO SECONDARY SCHOOL,34.01108169555664,0.202857002615929,Secondary,KEN,Kenya,
505b52bf-8257-3998-9446-02c434bc1211,BUSY SIMO JUNIOR ACADEMY,36.92150115966797,1.263401746749878,Primary,KEN,Kenya,
4aa55d3a-be60-36ae-9d1b-1f5ba7079b43,BUTE BOYS SECONDARY SCHOOL,39.41400146484375,3.359899997711182,Secondary,KEN,Kenya,
eecdbdaa-cbd3-3983-affc-e21ab32af490,BUTE GIRLS SECONDARY SCHOOL,39.41899871826172,3.37470006942749,Secondary,KEN,Kenya,
7c610a2f-440f-37a3-9855-49766182512d,BUTERE,34.49565887451172,0.210791796445847,Primary,KEN,Kenya,
cb38741b-e3b9-3e07-89b4-27ed952291e3,BUTERE GIRLS HIGH SCHOOL,34.49399948120117,0.211600005626678,Secondary,KEN,Kenya,
d3b15f86-f07d-3a1b-a334-277468dfe0a8,BUTERE SUB COUNTY PRIVATE CENTRE,34.47890090942383,0.20736999809742,Secondary,KEN,Kenya,
1f8c35cc-4f06-3f04-a8ff-65b1725c060c,BUTIELI HIGH SCHOOL,34.516998291015625,0.60290002822876,Secondary,KEN,Kenya,
246c55a8-242d-34c0-88ee-421e5199fb78,BUTIYE MIXED DAY SECONDARY SCHOOL,39.09503173828125,-3.443767786026001,Secondary,KEN,Kenya,
2e0e864e-e202-3a0b-a0e2-f92e56579cf2,BUTULA BOYS HIGH SCHOOL,34.33530044555664,0.341336995363235,Secondary,KEN,Kenya,
3b66dae4-cdc1-3028-ba0e-ffe3d246b727,BUTULA MIXED SECONDARY SCHOOL,34.357200622558594,0.333700001239777,Secondary,KEN,Kenya,
7e525d17-3450-3da4-967e-623346fa741f,BUYANI SECONDARY SCHOOL,40.29743957519531,-2.538229942321777,Secondary,KEN,Kenya,
063c3d2b-d5f9-3ad9-b16f-b0e9053633c8,BUYORE ACADEMY,34.818878173828125,-0.862670004367828,Primary,KEN,Kenya,
5327882d-23b9-3c86-a43b-16de6ae449dc,BWALA,34.827232360839844,1.081321001052856,Primary,KEN,Kenya,
155306db-3753-36a1-a148-83a3ce5adca9,BWALA SECONDARY SCHOOL,34.827701568603516,1.081069946289062,Secondary,KEN,Kenya,
8babbb0e-2a92-38ea-8c3b-92edd4f3adb9,BWARE SECONDARY SCHOOL,34.56755828857422,-1.037089943885803,Secondary,KEN,Kenya,
b0163b9d-72f4-3f04-be75-2a8880307c5e,CAFGEM BARRETO,39.025001525878906,-3.725199937820435,Primary,KEN,Kenya,
014cd304-a13c-352a-aedd-d8a288072fb5,CALVARY HOPE CENTRE PRIMARY,36.055999755859375,-0.291999995708466,Primary,KEN,Kenya,
c99ae4eb-45c6-3666-8c91-5d3332b7b6a0,CAMP BRETHREN MIXED BOARDING SECONDARY SCHOOL,36.27199935913086,0.588739991188049,Secondary,KEN,Kenya,
1c9c140b-11de-357d-8f78-f26660d69447,CANAAN SECONDARY SCHOOL,38.21699905395508,-2.51200008392334,Secondary,KEN,Kenya,
38db9320-bc65-3407-8ba4-2b514f432a0f,CANAN PRIMARY SCHOOL,35.60490036010742,3.082499980926514,Primary,KEN,Kenya,
a93f14e5-cb57-3506-b446-a7b17be92d5a,CANON KITURI SECONDARY SCHOOL,38.33980178833008,-3.382400035858154,Secondary,KEN,Kenya,
ce57ef97-9122-3fd6-a5f0-31542f29e802,CANON NJUMBI MUTIRA DAY SECONDARY SCHOOL,37.22710037231445,0.487399995326996,Secondary,KEN,Kenya,
47573333-4cdf-300e-b310-af13685f2ba1,CAPITAL HIGH SCHOOL KITHIMANI,37.2599983215332,1.110000014305115,Secondary,KEN,Kenya,
d5835ef0-9117-3910-85ed-999753fdb115,CAPTAIN PRIMARY,36.37576675415039,-0.339316993951797,Primary,KEN,Kenya,
d971a417-13bd-3d52-9765-9101c7ad50ce,CARDINAL OTUNGA SICHEI SECONDARY SCHOOL,34.52730178833008,0.61871999502182,Secondary,KEN,Kenya,
ea2173a9-cbe0-382c-823a-635c22b5154c,CARING HEARTS HIGH SCHOOL,37.275428771972656,-1.215909957885742,Secondary,KEN,Kenya,
4635af37-5bfd-356b-8e5d-2cacba72f74a,CARMEL CATHOLIC PRI,36.89875030517578,-1.275460004806519,Primary,KEN,Kenya,
d66ae942-1d3c-3a1e-84b9-14f3859f0fa4,CARMEL CENTRE SCHOOL,36.551998138427734,-1.152400016784668,Secondary,KEN,Kenya,
56ad9d80-735f-373f-9677-bf85ce1d639e,CARMEL NDAUNI,37.391998291015625,-1.672000050544739,Primary,KEN,Kenya,
47003097-ffb8-3074-a8d6-dffe34d91169,CAROL ACADEMY,36.071998596191406,-0.307000011205673,Primary,KEN,Kenya,
afe3a5b2-357f-3d47-869f-52fa4e8791cb,CATHOLIC INTEGRATED,40.07548522949219,1.753597974777222,Primary,KEN,Kenya,
7a0c4653-8a8b-3904-b6aa-024f06fb8bba,CATHOLIC PAROCHIAL,36.82749938964844,-1.285655975341797,Primary,KEN,Kenya,
3cc2f34c-74bf-3364-8fd7-716c044703c4,CATHSAM SCHOOL,36.89400100708008,-1.284999966621399,Primary,KEN,Kenya,
dc3a8c98-5404-3a96-9150-56b6dfe05662,C.C.M. GIANTUNE,37.62929916381836,0.042713899165392,Primary,KEN,Kenya,
76cd5097-5f02-3c57-b1f0-3ec8eb5b58e8,C.C.M GITORO,37.635101318359375,0.060159999877214,Primary,KEN,Kenya,
3a6966d3-7acf-3bc8-affd-7926d2b619ef,CCM MERU TOWNSHIP,37.65007781982422,0.052485000342131,Primary,KEN,Kenya,
6822fcb3-fc35-354a-ae2d-67e9ab5f89e1,CCM MERU TOWNSHIP SECONDARY SCHOOL,37.65060043334961,0.051979999989271,Secondary,KEN,Kenya,
340bb20f-0101-3cff-bf9b-25e77982f42b,C C M  NTHAARA PRIMARY SCHOOL,37.96799850463867,-0.150000005960464,Primary,KEN,Kenya,
90b5dd45-b933-3915-b488-6feaf003601f,CENGALO SECONDARY SCHOOL,35.40599822998047,0.155200004577637,Secondary,KEN,Kenya,
03c233df-d0bc-331f-8682-64d54c881574,CENTRAL HAGADERA PRIVATE,40.37065124511719,0.003719999920577,Primary,KEN,Kenya,
974a3f7d-ad2e-3642-a7d6-556d5a260c67,C G H U,36.82807159423828,-1.282739996910095,Primary,KEN,Kenya,
4bb0a3b2-9491-390d-bc03-1efe5b496459,C.G.H.U. MIXED SECONDARY SCHOOL,36.82889938354492,-1.285189986228943,Secondary,KEN,Kenya,
d79b0329-25b5-3e89-98b8-f51e9303d1a8,CHADWICK SENIOR SCHOOL,39.61436080932617,-4.026261806488037,Secondary,KEN,Kenya,
f6f53cf1-4aa5-3bb6-8fa6-10fbc86a825a,CHALALAQA,39.42646408081055,3.353278398513794,Primary,KEN,Kenya,
a9052383-463a-39b7-b7a3-a1b4ecb75115,CHALA SECONDARY SCHOOL,37.74399948120117,3.288000106811523,Secondary,KEN,Kenya,
81e5e764-1e97-30b9-a588-5c10f1611c9f,CHALBI BOYS' HIGH SCHOOL,37.62385940551758,2.937483310699463,Secondary,KEN,Kenya,
3d99ba4e-5bb6-3d95-9840-3c3447ad1ee7,CHAMPIONS EDUCATION CENTRE,35.25519943237305,0.478329986333847,Secondary,KEN,Kenya,
ba921bcb-2517-3709-96cc-f878dcfe04f1,CHAMPIONS PREPARATORY,35.242000579833984,0.532800018787384,Primary,KEN,Kenya,
7bfd2dd0-448f-34e3-8237-527699e7b5cf,CHANAGANDE,39.635276794433594,-3.776726961135864,Primary,KEN,Kenya,
9e528e70-0514-335a-94f8-446e10068cdb,CHANAGANDE SECONDARY SCHOOL,39.63808059692383,-3.773659944534302,Secondary,KEN,Kenya,
0c56eceb-ca9e-3948-a1ac-4fb85ffb01fc,CHANANI DAY SECONDARY SCHOOL,40.237998962402344,-1.424999952316284,Secondary,KEN,Kenya,
a7f3483f-ba02-3fb2-91e3-76aedb8a5575,CHANDA ADC,34.71058654785156,0.071258202195168,Primary,KEN,Kenya,
d62f0318-a029-3155-971f-dc2ba43f7e02,CHANDOLO SALVATION ARMY SECONDARY SCHOOL,34.685569763183594,0.015169999562204,Secondary,KEN,Kenya,
9dc9928d-c197-3532-a225-234d8c434267,CHANGACH  BARAK SECONDARY SCHOOL,35.58877944946289,0.433299988508224,Secondary,KEN,Kenya,
3de42a28-3dfc-3e75-82d7-a894eb6dd0c6,CHANGAMWE,39.626705169677734,-4.025678157806396,Primary,KEN,Kenya,
cf72ccf0-3566-3f38-9d34-40cf74868c51,CHANGAMWE ADVENTIST SECONDARY SCHOOL,39.6011848449707,-3.994947910308838,Secondary,KEN,Kenya,
d9b9feae-a106-3e83-ab34-e349e699ee8d,CHANGAMWE SECONDARY SCHOOL,39.63169860839844,-4.025899887084961,Secondary,KEN,Kenya,
d6d7a76f-2e27-3b97-ba03-407258c8bf45,CHANGAMWE SUB COUNTY PRIVATE CENTRE,34.130699157714844,4.025199890136719,Secondary,KEN,Kenya,
aa9bea75-ef7c-3ef7-ad5a-5a5d1f7cbb54,CHANGARA STAR ACAD,34.424285888671875,0.74084198474884,Primary,KEN,Kenya,
19ebcc99-152e-3d3a-8cb7-a143bd4a24a4,CHANGINA,35.101470947265625,-1.015624165534973,Primary,KEN,Kenya,
8d51ac6b-be97-315e-9633-59a88f70599c,CHANGINA GIRLS' SECONDARY SCHOOL,35.25389099121094,-1.041499972343445,Secondary,KEN,Kenya,
9a5b15ef-c0db-3fc7-8c1c-d2d7e87af787,CHANG'OMBE SECONDARY SCHOOL,39.59668731689453,-3.919250965118408,Secondary,KEN,Kenya,
2485dc1a-ea11-379b-88ec-2c6cb30f9617,CHANGO SECONDARY SCHOOL,34.726600646972656,0.058060001581907,Secondary,KEN,Kenya,
481bd7d6-ccdf-308a-ad2f-39c3c7f73758,CHANIA GIRLS' HIGH SCHOOL,37.71099853515625,-1.044999957084656,Secondary,KEN,Kenya,
24db1b2a-be61-3a3a-b83b-95e0b1ee40f3,CHANIA SCHOOL ACADEMY,37.17839813232422,-1.068699955940247,Primary,KEN,Kenya,
6cf14783-7dfe-3128-8649-3d362c17f3f4,CHARITY SECONDARY SCHOOL,36.81700134277344,0.199499994516373,Secondary,KEN,Kenya,
24aa7523-80d8-3a57-bd92-829be31bc637,CHASIMBA CENTRAL  PRIMARY SCHOOL,39.70000076293945,-3.769999980926514,Primary,KEN,Kenya,
beacc95e-58c8-3fb8-aad2-5aad1876c2c0,CHAVAKALI HIGH SCHOOL,34.73714065551758,0.117480002343655,Secondary,KEN,Kenya,
cdf40a01-1e6c-35ad-be85-280592605f91,CHAVAVO SECONDARY SCHOOL,34.656639099121094,0.017699999734759,Secondary,KEN,Kenya,
53d6fe09-cb1d-343d-9173-63b428ff673b,CHAWIA HIGH SCHOOL,38.36309814453125,-3.475800037384033,Secondary,KEN,Kenya,
364ea3ea-2795-3126-a516-d312b8ba5cad,CHEBARA,35.495399475097656,0.893369674682617,Primary,KEN,Kenya,
782e6c8d-9a6e-303e-ba18-49b62f8ce177,CHEBARUS SECONDARY SCHOOL,35.18717575073242,0.059932999312878,Secondary,KEN,Kenya,
caeeec9e-6dc8-3422-a63e-8016895bdf8a,CHEBEREN SECONDARY SCHOOL,35.83330154418945,-0.022569999098778,Secondary,KEN,Kenya,
cae8ce05-a8d2-3a5c-b112-489ab758ff26,CHEBIEMIT  SECONDARY SCHOOL,35.499000549316406,0.855099976062775,Secondary,KEN,Kenya,
74f075fb-2182-3af7-8942-0028faa65de8,CHEBIGEN SECONDARY SCHOOL,35.39522933959961,-0.188981994986534,Secondary,KEN,Kenya,
fd0cac44-05f1-3f0b-9f35-5b2fbf3b5642,CHEBILAT SECONDARY SCHOOL,35.23249816894531,-0.624239981174469,Secondary,KEN,Kenya,
cfb03ae8-e55a-3764-85a4-b0886016c604,CHEBIREI MIXED DAY SECONDARY SCHOOL,35.582496643066406,0.353742986917496,Secondary,KEN,Kenya,
2f2e4049-6c36-313b-91ba-1a79aaddd534,CHEBISIAN,35.41054916381836,-0.793735980987549,Primary,KEN,Kenya,
2b2139b9-286c-33df-b415-cf00ab18bf4d,CHEBITOIK MIXED DAY SECONDARY SCHOOL,35.15145492553711,-1.015578985214233,Secondary,KEN,Kenya,
b0c3cf28-0860-35e3-ae85-e0d4e1ad06e2,CHEBOIN SECONDARY SCHOOL,35.375999450683594,-0.807900011539459,Secondary,KEN,Kenya,
2500145e-7635-31a1-915a-3d19a5be7345,CHEBOLE,35.21500015258789,0.746890008449554,Primary,KEN,Kenya,
95a9ecf4-9579-3ed1-b8a8-ac915f7b365b,CHEBONET,35.5458984375,0.468160003423691,Primary,KEN,Kenya,
1153f43b-a51a-37c3-9679-e75790c1f00c,CHEBORGE BOYS HIGH SCHOOL,35.13349914550781,-0.568270027637482,Secondary,KEN,Kenya,
d429566f-4ca9-39e5-95b3-9d7e8fcc5cf8,CHEBORGE GIRLS SECONDARY SCHOOL,35.13302993774414,-0.568539977073669,Secondary,KEN,Kenya,
0c4e11b5-3326-3598-8803-d64be0a3f44d,CHEBOSI S.A. SECONDARY SCHOOL,34.689998626708984,0.646899998188019,Secondary,KEN,Kenya,
4a256490-7294-387e-b145-a1fa14a3f9ff,CHEBOTOI SECONDARY SCHOOL,35.63283157348633,-0.563049972057343,Secondary,KEN,Kenya,
a8069de1-ebcf-313d-9eb5-b5d70f163a1f,CHEBUI,35.00345993041992,0.413260012865067,Primary,KEN,Kenya,
0094a113-dd12-3e78-9a6c-2fb6eea2b2f7,CHEBUKAKA GIRLS SECONDARY SCHOOL,34.61281967163086,0.754804015159607,Secondary,KEN,Kenya,
1c9dfc7a-89b0-36c1-87e9-1bba01dc954b,CHEBUKWA SECONDARY SCHOOL,34.5767822265625,0.624987006187439,Secondary,KEN,Kenya,
9428934c-3a9b-33cc-9fd2-4b59f4946318,CHEBUNYO GIRLS SECONDARY SCHOOL,35.194637298583984,-0.966436982154846,Secondary,KEN,Kenya,
d4ec6a1a-d6ea-3307-bf60-dd1b66c551d4,CHEBWAGAN SECONDARY SCHOOL,35.14799880981445,-0.602044999599457,Secondary,KEN,Kenya,
a5ad152d-8fac-3b5f-a031-962fad87a505,CHEGILET SECONDARY SCHOOL,35.598838806152344,0.815330028533936,Secondary,KEN,Kenya,
ab1406ce-012b-3393-914d-a53dd049d499,CHEGULO SECONDARY SCHOOL,34.9213981628418,0.489600002765656,Secondary,KEN,Kenya,
ff757226-1ae0-3c8e-8738-7e12ec0fea35,CHEKALINI SECONDARY SCHOOL,34.97700119018555,0.638700008392334,Secondary,KEN,Kenya,
9976a8bc-f6b1-32f1-bb6e-62ee0a751d81,CHELALANG SECONDARY SCHOOL,35.35599899291992,0.589100003242493,Secondary,KEN,Kenya,
eea595bc-5515-3ab6-888d-d99622c2305c,CHELELACH HIGH SCHOOL,35.15721130371094,-0.903110027313232,Secondary,KEN,Kenya,
ef900b9f-b234-3321-b214-9f47b949dfd2,CHELILIS GIRLS SECONDARY SCHOOL,35.17890167236328,0.540220022201538,Secondary,KEN,Kenya,
62c10701-6700-3af5-a9ec-12cee8860718,CHEMAETANY DAY SECONDARY SCHOOL,35.144500732421875,0.540459990501404,Secondary,KEN,Kenya,
a5359634-8070-3554-b987-04f3cb0aeb34,CHEMAIN PRIMARY SCHOOL,35.587501525878906,1.400599956512451,Primary,KEN,Kenya,
ba5a0542-319d-3db6-b4a2-f29ae4f57524,CHEMAMUL BOYS SECONDARY SCHOOL,35.15317153930664,-0.452764004468918,Secondary,KEN,Kenya,
56750257-3c12-3172-9b50-24f4092fd256,CHEMAMUL SECONDARY SCHOOL,35.3557014465332,-0.011189999990165,Secondary,KEN,Kenya,
a1d3b10b-b3f2-3b18-9fa9-bf3b77b45605,CHEMANER SECONDARY SCHOOL,35.47806167602539,-0.802179992198944,Secondary,KEN,Kenya,
65f0f49c-ce1c-3b8e-ba0a-88afd56df741,CHEMATICH SECONDARY SCHOOL.,35.07400131225586,1.086740016937256,Secondary,KEN,Kenya,
06b62617-dc46-37df-b02c-eb8228d6abe0,CHEMCHE SECONDARY SCHOOL,34.35200119018555,0.57480001449585,Secondary,KEN,Kenya,
758f38ad-a0ac-3c04-9ff4-2b31b3854568,CHEMEGONG,35.04899978637695,-0.427700012922287,Primary,KEN,Kenya,
02ec5973-dfe8-3ab0-923c-2df8f8069166,CHEMELET SECONDARY SCHOOL,35.2140007019043,0.564300000667572,Secondary,KEN,Kenya,
c68cfeb2-2726-3250-a26e-04821142ba1f,CHEMELIL BI,35.11899948120117,-0.097000002861023,Primary,KEN,Kenya,
f83944fe-37ea-3448-94b1-a83c132b0895,CHEMELIL SUGAR ACADEMY,35.145111083984375,-0.0650499984622,Secondary,KEN,Kenya,
32743484-25c9-3e92-92e3-a375a79fdde2,CHEMENGWA SECONDARY SCHOOL,35.29949951171875,0.917630016803741,Secondary,KEN,Kenya,
0db49c4c-78ab-321a-ad5e-bbf7118a9864,CHEMICHEMI YA TUMAINI SCHOOL,36.79059600830078,-1.312595963478088,Primary,KEN,Kenya,
c8399351-9a5e-3685-b48e-5edd7a131a55,CHEMITAN ACADEMY,35.19179153442383,-0.588270008563995,Primary,KEN,Kenya,
27334c20-1299-39b1-a085-13ebdcacde09,CHEMOGOCH SECONDARY SCHOOL,35.27859878540039,-0.122419998049736,Secondary,KEN,Kenya,
2fae8639-edf5-3667-b44d-3d0bd27a5362,CHEMOLINGOT,35.96870040893555,0.986788988113403,Primary,KEN,Kenya,
fc430fb7-b40b-35e8-affe-665c26541592,CHEMOLINGOT SECONDARY SCHOOL,35.97420120239258,0.974200010299683,Secondary,KEN,Kenya,
99250844-fc50-396e-b738-c83d53c64d18,CHEMOLO ELCK MIXED DAY SECONDARY SCHOOL,35.332000732421875,1.294100046157837,Secondary,KEN,Kenya,
c8052906-5f73-37bd-b0d3-60a09c9e1aeb,CHEMORUT,35.45165252685547,-0.760233700275421,Primary,KEN,Kenya,
aad4d80f-2b5a-35dd-8233-a4957d151982,CHEMUNDU SECONDARY SCHOOL,35.08919906616211,0.249219998717308,Secondary,KEN,Kenya,
061c87aa-8c28-3787-9135-ce404bd01bd9,CHEMUSWA,35.111610412597656,0.349920004606247,Primary,KEN,Kenya,
b91f0720-2178-32df-9686-0634b1ac1cc1,CHEMUTLOKOTYO SECONDARY SCHOOL,35.57500076293945,1.3992999792099,Secondary,KEN,Kenya,
a08b824f-6977-3e9a-ad79-1b8b670a55c2,CHEMWAPIT,35.26047134399414,1.719268083572388,Primary,KEN,Kenya,
a6d54dfb-3ca6-3376-a389-805916fe7424,CHEMWA R.C,34.56218719482422,0.615983009338379,Primary,KEN,Kenya,
15cc00ee-aa8c-3ff3-948b-7f939f274a9a,CHEMWEISUS S.A SECONDARY SCHOOL,34.719200134277344,0.851960003376007,Secondary,KEN,Kenya,
18aeab0e-b460-3f42-b8eb-963032ef8872,CHEMWOROR,35.57276153564453,1.072540044784546,Primary,KEN,Kenya,
b2c8f900-4041-35be-aab3-3f32e94a8d4b,CHEPALUNGU BOYS' HIGH SCHOOL,35.29949951171875,0.917630016803741,Secondary,KEN,Kenya,
46e49ed9-a018-3100-91e4-2a3cc16b91fd,CHEPARERIA MIXED DAY SECONDARY SCHOOL,35.12099838256836,1.307399988174438,Secondary,KEN,Kenya,
c788345f-32a1-3350-964f-b43d2e7b98f1,CHEPCHOLIET SECONDARY SCHOOL,35.36370086669922,0.255199998617172,Secondary,KEN,Kenya,
bcd24a7e-80be-353c-8632-c0e207e095c8,CHEPKAOS,35.14741134643555,0.980578005313873,Primary,KEN,Kenya,
247e782d-bd10-33d7-b4bb-92f950553488,CHEPKEMEL,35.055999755859375,-0.391799986362457,Primary,KEN,Kenya,
b696258a-1cc3-3b9c-9932-9a12206a74e6,CHEPKOILEL SECONDARY SCHOOL,35.30939865112305,0.604900002479553,Secondary,KEN,Kenya,
dbf2e843-ece1-3019-bdef-f33a9d32ef30,CHEPKOILEL SECONDARY SCHOOL,34.83530044555664,0.904212772846222,Secondary,KEN,Kenya,
016a42c7-d20a-3e3f-8b15-248c3691d268,CHEPKOIYO SECONDARY SCHOOL,35.297000885009766,0.291000008583069,Secondary,KEN,Kenya,
80bb7875-3d13-3792-80b9-3d49b29d15fb,CHEPKOIYO SECONDARY SCHOOL,35.30746078491211,-0.26587501168251,Secondary,KEN,Kenya,
064ab680-196a-3c4b-b748-5219e045367e,CHEPKOLON GREEN HIGHLANDS ACADEMY,37.075599670410156,0.272760003805161,Primary,KEN,Kenya,
bdbbcff2-9fab-3e1f-ae28-6398c7719d2f,CHEPKOLON  MIXED SECONDARY SCHOOL,35.39250183105469,-0.860790014266968,Secondary,KEN,Kenya,
0f7ae9f2-bb51-3174-a9d3-a505c3770a43,CHEPKONDOL PRIMARY SCHOOL,35.427669525146484,1.653349995613098,Primary,KEN,Kenya,
2baecb08-4552-3314-a855-a3d6e0e1f7f4,CHEPKONGONY,35.427799224853516,0.355569988489151,Primary,KEN,Kenya,
9d78e31a-2a4d-3754-bf8a-a61e19663ac1,CHEPKONGONY C O C SECONDARY SCHOOL,35.44279861450195,0.36981999874115,Secondary,KEN,Kenya,
a867756c-5fbe-3226-a1c9-a50f23e60611,CHEPKORNISWO,35.1619987487793,1.335700035095215,Primary,KEN,Kenya,
b59ff4f3-456d-3968-baec-8f81f1db0f88,CHEPKORNISWO BOYS' SECONDARY SCHOOL,35.25,1.341500043869019,Secondary,KEN,Kenya,
adcf3de9-7b30-3de1-b8d1-f7b91b111970,CHEPKUBE A.C.K SECONDARY SCHOOL,34.428001403808594,0.83050000667572,Secondary,KEN,Kenya,
110b010e-d1d7-3ebe-9d37-bc017d1e209f,CHEPKUBE S.A SECONDARY SCHOOL,34.44900131225586,0.832400023937225,Secondary,KEN,Kenya,
0940c224-44df-373c-816f-a63d694983d0,CHEPKUM,35.615604400634766,0.971934974193573,Primary,KEN,Kenya,
cec4c26f-1e02-33af-9767-519813de1abe,CHEPLANGET SECONDARY SCHOOL,35.137516021728516,-0.632902026176453,Secondary,KEN,Kenya,
c4e3b381-cd0b-32b1-9e09-b0e189c1e63f,CHEPLELACHBEI SECONDARY SCHOOL,35.268558502197266,0.17485000193119,Secondary,KEN,Kenya,
3c843fc2-c547-3f19-90c9-c0691935fa86,CHEPLELACHBEI  EAST MIXED SECONDARY SCHOOL,35.47909927368164,-0.208629995584488,Secondary,KEN,Kenya,
326601d1-7ffe-3d5d-9550-97103d3de605,CHEPLELAIBEI NORTH SECONDARY SCHOOL,35.27799987792969,0.514599978923798,Secondary,KEN,Kenya,
a95de35f-6ad6-3a04-9004-2dc4dae9b100,CHEPNGOBOB SECONDARY SCHOOL,35.31599044799805,0.312557995319366,Secondary,KEN,Kenya,
b7d9f308-2a6d-3752-a03f-ca823f652686,CHEPNG'OROR SECONDARY SCHOOL,35.43450164794922,0.215389996767044,Secondary,KEN,Kenya,
1e726dd3-3317-38a4-a994-3d58b1cfe1d2,CHEPOLET PRIMARY SCHOOL,35.283878326416016,-1.671419978141785,Primary,KEN,Kenya,
e106f835-b6fb-373c-a0f5-68fad2761792,CHEPSAITA SECONDARY SCHOOL,34.923919677734375,0.605979979038239,Secondary,KEN,Kenya,
df7a743f-1c8a-3db1-abe7-fe3acb0cdefa,CHEPSALEI SECONDARY SCHOOL,34.86895751953125,1.108384966850281,Secondary,KEN,Kenya,
f4d00637-02e2-3c03-b356-d6346f6c8608,CHEPSEON MIXED SECONDARY SCHOOL,35.44900131225586,0.283199995756149,Secondary,KEN,Kenya,
983e2ea5-c75d-39d2-8a3c-b5e27c5deeb4,CHEPSIGOT SECONDARY SCHOOL,35.34318923950195,0.304740011692047,Secondary,KEN,Kenya,
a61ad36a-dfe1-36bf-bd36-730d3a836ce7,CHEPSUI,35.018192291259766,0.172137901186943,Primary,KEN,Kenya,
44c1eede-92a8-3ef4-8201-d148a1736aee,CHEPTABACH SECONDARY SCHOOL,35.23699951171875,-0.563080012798309,Secondary,KEN,Kenya,
f5f3d3a6-e4be-36ec-878c-01eaa99cc554,CHEPTAPESIA,35.42058181762695,1.397729992866516,Primary,KEN,Kenya,
c5e94df0-0ab1-377d-9865-9f5eb250e6d4,CHEPTEM,35.55699920654297,1.861570000648499,Primary,KEN,Kenya,
d33f9a4d-bd7d-32e5-8870-6a743a829451,CHEPTENDENIET SECONDARY SCHOOL,35.13050079345703,0.537519991397858,Secondary,KEN,Kenya,
e9992078-823b-3acb-afb2-e69dde59fcfb,CHEPTENYE,35.18547058105469,-0.36021700501442,Primary,KEN,Kenya,
c47ef153-8509-3ff8-b4e3-e7daeb65fa51,CHEPTOCH,35.2321891784668,1.586599946022034,Primary,KEN,Kenya,
da7b4fee-33e4-3df4-b5f9-0f19bcf42e96,CHEPTONGEI,35.51570129394531,0.942340016365051,Primary,KEN,Kenya,
bedc164f-fd73-38f9-9459-aec2e287ff7f,CHEPTONGEI SECONDARY SCHOOL,35.5152702331543,0.942510008811951,Secondary,KEN,Kenya,
e07a149e-c47c-3b43-9943-91d901c4b034,CHEPTOROI SECONDARY SCHOOL,35.90083312988281,0.36794900894165,Secondary,KEN,Kenya,
551018d7-c4c6-30ad-8390-5b8049d89f94,CHEPTRAM,35.30609130859375,-1.641370058059692,Primary,KEN,Kenya,
65fcfeba-9fbc-330d-8d61-cb609dd4a14c,CHEPTUIYET GIRLS SECONDARY SCHOOL,35.06082534790039,-0.523886024951935,Secondary,KEN,Kenya,
2aa9f21c-ee0c-31de-a87b-6dc0a78acb28,CHEPTULEL BOYS SECONDARY SCHOOL,35.61834716796875,1.297086954116821,Secondary,KEN,Kenya,
28a29559-5858-32cb-b94c-b8ce44057470,CHEPTUMBELIO SECONDARY SCHOOL-KALAHA,34.80911636352539,1.012921571731567,Secondary,KEN,Kenya,
39aa6e75-703b-3ad0-8f31-54925cab97a5,CHEPTUYA MIXED DAY SECONDARY SCHOOL,35.01123809814453,1.253360033035278,Secondary,KEN,Kenya,
71c3a204-6423-3484-b13e-ad1d6c402000,CHEPUSAI,34.78200149536133,0.562399983406067,Primary,KEN,Kenya,
d0bc801d-dc49-3097-a3f5-1463a98d3fbf,CHERARA MIXED DAY SECONDARY SCHOOL,35.465721130371094,-0.200025096535683,Secondary,KEN,Kenya,
10b868ed-a270-3ecf-9516-77a0ccfa33b1,CHERETA SECONDARY SCHOOL,36.3913688659668,0.29449000954628,Secondary,KEN,Kenya,
b207ae8f-9569-3c91-856c-b8f542a47397,CHERIBO SECONDARY SCHOOL,35.159000396728516,0.395399987697601,Secondary,KEN,Kenya,
bc437815-e575-33d6-ba55-011bf097fec0,CHESAKAM PRIMARY SCHOOL,36.0184211730957,1.013679981231689,Primary,KEN,Kenya,
b5e786ac-a6a9-3001-a00e-bcf94042e301,CHESAMISI BOYS HIGH SCHOOL,34.79140090942383,0.837119996547699,Secondary,KEN,Kenya,
bc7908f4-dbc0-3cbe-8bf4-855174b29de1,CHESIKAKI R.C SECONDARY SCHOOL,34.51599884033203,0.800100028514862,Secondary,KEN,Kenya,
d6fe4f8f-b80a-3196-ac53-34be40eefca6,CHESILYOT GIRLS SECONDARY SCHOOL,35.177101135253906,-0.671509981155396,Secondary,KEN,Kenya,
eae8b95b-ae29-34e3-8258-5718ab723066,CHESINENDE,35.48057174682617,-0.267140001058578,Primary,KEN,Kenya,
4809734a-f343-31d3-8d45-8ac135dbe174,CHESINENDE GIRLS SECONDARY SCHOOL,35.47980880737305,-0.267599999904633,Secondary,KEN,Kenya,
97ce0089-1d53-3d99-bb41-460afd05cae2,CHESINGELE SECONDARY SCHOOL,35.68410110473633,-0.327800005674362,Secondary,KEN,Kenya,
5709433f-4d7f-371a-a280-3298d563fa29,CHESOEN,35.34550094604492,-0.759648025035858,Primary,KEN,Kenya,
11bfbb76-2ccc-38cf-a3c2-471d05a42b76,CHESOEN HIGH SCHOOL,35.326229095458984,-0.702310979366302,Secondary,KEN,Kenya,
9c29e6e2-4dbd-310b-807b-b964b66f02c9,CHESOGOR,34.459999084472656,0.100000001490116,Primary,KEN,Kenya,
47bbbedb-a25e-31a9-8714-0d1aeb7f969b,CHESONGOCH,35.64548110961914,1.127717614173889,Primary,KEN,Kenya,
ea4cadd5-ba6c-374b-875c-1813dc8e25a7,CHESONGO MIXED DAY SECONDARY SCHOOL,35.67599868774414,0.549700021743774,Secondary,KEN,Kenya,
666a7e01-9c2a-3b46-a25c-1cbbb3689152,CHESUMEI ACADEMY,34.94007873535156,0.137050002813339,Primary,KEN,Kenya,
b49b2c28-4de0-3d62-b07d-974385145f40,CHESUWE HIGH SCHOOL,35.16448974609375,0.152710005640984,Secondary,KEN,Kenya,
147fe349-4733-3d3b-9f31-507208b244f2,CHEWELE,39.86880111694336,1.099679946899414,Primary,KEN,Kenya,
9d7e3c56-3073-39a4-b899-4b5cd0c26502,CHEWOYET HIGH SCHOOL,35.11910629272461,1.239193439483643,Secondary,KEN,Kenya,
ba33db66-5e29-31cf-9881-39004d1777f2,CHIAKARIGA,37.91986083984375,-0.277224332094193,Primary,KEN,Kenya,
7a203516-e204-30ee-8c05-ed6415c1a544,CHIEF KIAMBA,37.380001068115234,-1.973999977111816,Primary,KEN,Kenya,
a23d627c-edb7-304b-b554-b804933f94cd,CHIEF MAKAU MIXED SECONDARY SCHOOL,38.055301666259766,-1.710929989814758,Secondary,KEN,Kenya,
12b92672-88e7-3541-9e70-7a4e2604fb5e,CHIEF MBOGORI GIRLS SECONDARY SCHOOL,37.608001708984375,-0.248799994587898,Secondary,KEN,Kenya,
6774c497-9bae-394f-b747-3caa544af761,CHIEF MOHAMED JARI SECONDARY SCHOOL,40.66353988647461,2.43983006477356,Secondary,KEN,Kenya,
fc67fe10-03bd-3f1a-aba0-da95143473fa,CHIEF MUTSEMBI,34.72999954223633,0.285600006580353,Primary,KEN,Kenya,
25799f6e-7abf-3382-96f8-6a6bacfa19d4,CHIFIRI,39.70769119262695,-1.294389963150024,Primary,KEN,Kenya,
31f32ba9-51ee-3567-9697-21415fc4ee4e,CHIGA MIXED SECONDARY SCHOOL,34.492549896240234,-0.550700008869171,Secondary,KEN,Kenya,
e9536e5c-8d40-3d29-a879-1473bbd4374f,CHILCHILA,35.34939956665039,-0.198341995477676,Primary,KEN,Kenya,
fe49f81f-8101-336f-9f96-1ef9d3c157a5,CHILCHILA SECONDARY SCHOOL,35.35430908203125,-0.186829999089241,Secondary,KEN,Kenya,
8b1213e9-7720-3cc4-a259-29a506259388,CHILDREN ARE PEOPLE SCHOOL,35.1290283203125,0.876370012760162,Primary,KEN,Kenya,
65906f3b-0544-3b65-b89d-ca72ed87ed02,CHIMOI M.H.M.,34.81999969482422,0.577899992465973,Primary,KEN,Kenya,
07e3c1fb-524c-30cd-8495-07735af8c361,CHINATO,34.61349868774414,-1.293349981307983,Primary,KEN,Kenya,
9d295047-5d0e-39fa-b7c3-721a274e3fcd,CHINGA BOYS HIGH SCHOOL,36.92070770263672,0.57847398519516,Secondary,KEN,Kenya,
22a2653e-f420-3c40-8def-0534b2927df2,CHINYUME PRIMARY SHOOL,39.81529998779297,-3.68778920173645,Primary,KEN,Kenya,
73a3a6bc-bc43-382d-a9a9-89a399e42c7e,CHOGORIA BOYS HIGH SCHOOL,37.632999420166016,-0.229900002479553,Secondary,KEN,Kenya,
66f96a72-7a85-3a98-b14b-443a51754138,CHOGORIA GIRLS,37.62810134887695,-0.230709999799728,Secondary,KEN,Kenya,
202e25fa-6076-3dcd-9846-b30f36f19e7f,CHOMO,36.7411994934082,-0.77539998292923,Primary,KEN,Kenya,
46e074b5-4b0b-3ce1-b0bb-a3de8ee70463,CHONYI BRIGHT STAR ACADEMY,39.70000076293945,-3.769999980926514,Primary,KEN,Kenya,
9b3c6ee7-c776-3732-8f80-2b2cc79cbaa6,CHORLIM,34.847660064697266,1.038854956626892,Primary,KEN,Kenya,
5340ccff-39d3-34d7-a111-5ef5681d146d,CHOROK,35.26472091674805,1.195088982582092,Primary,KEN,Kenya,
7362b287-4bd9-3c26-ac37-cdb56a0d7c40,CHORONOK,35.56678009033203,-0.774730026721954,Primary,KEN,Kenya,
975b1ca7-a10d-355b-a5bd-a612cdfbd4ef,CHORONOK,35.13972473144531,0.986235916614532,Primary,KEN,Kenya,
4aa6d4d5-f609-3926-9a53-529028eb80ca,CHORONOK MIXED SECONDARY SCHOOL,35.56679916381836,-0.775940001010895,Secondary,KEN,Kenya,
7cb34eb7-809f-33f1-8bb8-8f03fc6637e8,CHORORGET,35.44887924194336,0.33814001083374,Primary,KEN,Kenya,
1c002909-e7c3-38d6-b22d-8a02be10d731,CHRISMORRONE KIAMATHAGA MIXED SECONDARY SCHOOL,37.048301696777344,-0.171320006251335,Secondary,KEN,Kenya,
d7bc8515-26a9-3d5b-94ac-1e174e067f65,CHRISTLIKE ACADEMY,36.64959716796875,-1.110780954360962,Primary,KEN,Kenya,
3f0afb98-5539-355d-b0d2-f0a88924e58c,CHRIST THE KING,34.56298065185547,-0.569159984588623,Primary,KEN,Kenya,
e5941531-3d7c-34ff-80bd-d4bcdcde11b1,CHRIST THE KING GATHAGE SECONDARY SCHOOL,36.90134811401367,-1.04804003238678,Secondary,KEN,Kenya,
177d977f-580f-37b7-b248-2cc9dd8d1254,CHRIST THE KING HIGH SCHOOL CHEPTERIT,35.13145065307617,0.233490005135536,Secondary,KEN,Kenya,
7267656e-f1c7-3ca4-9e7a-5129bd17defb,CHRIST THE KING SECONDARY SCHOOL- KIMANA,37.5359992980957,-2.801399946212769,Secondary,KEN,Kenya,
f29b8267-0602-3c20-82a4-5d6beb8657a6,CHRIST THE KING SECONDARY SCHOOL-SENETWO,35.17399978637695,1.320500016212463,Secondary,KEN,Kenya,
6388b7e7-5209-3987-99dd-a688dfdaa301,CHRIST THE TEACHER KENYORO SECONDARY SCHOOL,34.76359939575195,-0.742150008678436,Secondary,KEN,Kenya,
a3a49312-7dda-3d05-b154-48274938577f,CHUCHUNIAT,35.37607955932617,0.359320014715195,Primary,KEN,Kenya,
bfa8e706-6eda-35be-82ea-92d7a805ff00,CHUCKIM UTUMISHI BAPTIST PRIMARY SCHOOL,37.23870086669922,0.084629997611046,Primary,KEN,Kenya,
88c8199e-8f83-382b-a71c-57123de346d5,CHUGU BOYS SECONDARY SCHOOL,37.67717361450195,0.68817001581192,Secondary,KEN,Kenya,
bb85fe3b-cedb-3fe7-a4c9-0ad752d5ee0b,CHUI,37.009891510009766,-0.663015186786652,Primary,KEN,Kenya,
9d85c8b1-5732-35d5-a135-e51bc8171c45,CHUKA ADVENTIST SECONDARY SCHOOL,37.72119903564453,0.32710000872612,Secondary,KEN,Kenya,
78a9716a-5d02-3a49-a88f-2a1276b1614b,CHUKA BOYS HIGH SCHOOL,37.649898529052734,-0.336199998855591,Secondary,KEN,Kenya,
48a91a38-4cf0-3f54-9783-3e5d5b0f4af2,CHUKA DEB PRY,37.65531921386719,-0.329699993133545,Primary,KEN,Kenya,
aa3f0078-0453-3a42-8df0-7b1405578285,CHUKA GIRLS' SECONDARY SCHOOL,37.64099884033203,-0.332049995660782,Secondary,KEN,Kenya,
a1a84049-f99b-3f4f-8ef8-3511ac2d3b12,CHUKA TOWNSHIP,37.642051696777344,-0.332379996776581,Primary,KEN,Kenya,
7e790d4c-e132-37e3-820a-19bfd294aa7b,CHULAIMBO SECONDARY SCHOOL,34.632469177246094,-0.041919998824596,Secondary,KEN,Kenya,
1a231b1e-a26b-3310-9ffc-3008721499ca,CHULUNI GIRLS' SECONDARY SCHOOL,38.0369987487793,1.413800001144409,Secondary,KEN,Kenya,
7dff46ed-6aea-321a-a5a4-33ebec2e8485,CHULUNI MERRYLAND SCHOOL,38.0369987487793,-1.409000039100647,Primary,KEN,Kenya,
9a05d534-6fea-3358-aca0-b6e090eebb72,CHUMANI,39.897560119628906,-3.47022008895874,Primary,KEN,Kenya,
ec5c8591-1ef2-3236-a423-8162e12e1ce8,CHUNG'ARI MIXED DAY SECONDARY SCHOOL,37.400001525878906,0.449999988079071,Secondary,KEN,Kenya,
055953ef-9968-3288-be1f-da2d98972eb3,CHUNGE MIXED SECONDARY SCHOOL,34.41516876220703,-0.87594997882843,Secondary,KEN,Kenya,
20714f3d-613b-3bde-b8b7-61814a6a100a,CHWELE GIRLS HIGH SCHOOL,34.548301696777344,0.761780023574829,Secondary,KEN,Kenya,
767b07e3-f5f9-3390-86ab-adc588b1bc87,CIAMANDA MIXED DAY SECONDARY SCHOOL,37.38399887084961,-0.245100006461143,Secondary,KEN,Kenya,
970f7f29-3381-3bd9-b304-f5e19522ffd0,CIANGERA,37.83185958862305,-0.432680010795593,Primary,KEN,Kenya,
c311d140-1ff5-3652-a24a-0b1f4d92cac9,CIANYI,37.61048889160156,-0.587214291095734,Primary,KEN,Kenya,
2b8c165c-8351-3faa-aa3e-641764171ba4,CIERIA MIXED SECONDARY SCHOOL,37.837215423583984,0.643360018730164,Secondary,KEN,Kenya,
0be67533-2276-3c30-afb2-0551430a33d0,CITADEL A JUNIOR SCHOOL,39.40005111694336,-4.023399829864502,Primary,KEN,Kenya,
eac8e75e-6f68-3f2d-97ed-24bb3e6390e8,CITADEL MAIDEN SECONDARY SCHOOL,39.77665328979492,-3.917496919631958,Secondary,KEN,Kenya,
2391c231-0d16-3b95-a22e-ab33dd386174,CITAM  SCHOOLS  KISUMU,34.76499938964844,-0.108999997377396,Primary,KEN,Kenya,
18f3c63d-1ecd-345b-9a94-e6268fa934dc,CITAM SCHOOLS WOODLEY,36.773799896240234,1.303099989891052,Primary,KEN,Kenya,
89bf2a8b-e0a4-3bc2-a8c6-14221d3e00e3,CITY PRIME ACADEMY,36.744998931884766,-1.300799965858459,Secondary,KEN,Kenya,
024c8441-c398-3993-9caa-36bf85bd5f64,CLAY CITY GIRLS HIGH SCHOOL,36.922027587890625,-1.220196962356567,Secondary,KEN,Kenya,
6152c5a2-c6aa-3cf6-992d-94cf44635e35,CLAY INTERNATIONAL SECONDARY SCHOOL,37.72896957397461,-2.079829931259155,Secondary,KEN,Kenya,
22948fcc-9aa0-38de-89ff-7946bae6671b,COASTBAY ACADEMY,35.38777160644531,-0.73089998960495,Primary,KEN,Kenya,
d9524d00-b73b-3e20-a03f-93d105f06570,COAST CENTRAL ADVENTIST SCHOOL,39.671199798583984,-4.033999919891357,Primary,KEN,Kenya,
4236ac57-4cf2-3c07-a99e-e536fab083c3,COAST PARENTS SECONDARY SCHOOL,39.618408203125,-3.993410110473633,Secondary,KEN,Kenya,
d64d3cb3-b6ff-3c24-8258-3fc05d57533e,COLLIN'S JUNIOR ACADEMY,35.242000579833984,0.532800018787384,Primary,KEN,Kenya,
7c9eca08-d7c1-3613-a844-7768ce1b133e,CONCORD GIRLS HIGH SCHOOL,35.32674026489258,0.501990020275116,Secondary,KEN,Kenya,
bac47186-6714-3cfc-8ce2-895ec85caef7,CONSOLATA CATHOLIC,39.646419525146484,-4.101309776306152,Primary,KEN,Kenya,
58eb3fba-e8c0-3bcb-bcb9-910ba2b9b6b5,CONSOLATA GIRLS SECONDARY SCHOOL- GITARAKA,37.3348503112793,-0.81010502576828,Secondary,KEN,Kenya,
35ab34c9-1738-32bd-9a0b-bb2941834334,CONSOLATA GIRLS SECONDARY SCHOOL -IRIAMURAI,37.66325378417969,-0.718300998210907,Secondary,KEN,Kenya,
e2a227c3-a4a2-3a9c-b688-8562c945a739,CONSOLATA GITORO,37.63370132446289,0.061999998986721,Primary,KEN,Kenya,
42a2df99-c05f-335b-bd0f-784aaf3cf936,CORBAN HIGH SCHOOL,34.47480010986328,-1.085970044136047,Secondary,KEN,Kenya,
d8e1cf7b-5e6a-3000-9dd2-23adc87f8cd0,COTTOLENGO,37.930503845214844,0.325834006071091,Primary,KEN,Kenya,
97b27566-e9d3-304e-aaf5-a9c31bb7dbb5,COULSON GIRLS' SECONDARY SCHOOL,36.315486907958984,-0.483585000038147,Secondary,KEN,Kenya,
d8594b04-2d6b-36aa-9bc9-e35fabcf4680,COULSON SECONDARY SCHOOL,36.36868667602539,-0.522258996963501,Secondary,KEN,Kenya,
3b8a2f29-85a0-38d7-91a1-96b90617f324,COVENANT TREASURES SCHOOL,36.50796127319336,-1.168650031089783,Secondary,KEN,Kenya,
